     2              OBSERVATION DATA    G (GPS)             RINEX VERSION / TYPE
GPS-DATA Ver 1.08                                           PGM / RUN BY / DATE
Zimmerwald LT88                                             COMMENT
BIT 2 OF LLI (+4) FLAGS DATA COLLECTED UNDER "AS" CONDITION COMMENT
                                                            COMMENT
ZIMM                                                        MARKER NAME
14001M004                                                   MARKER NUMBER
GPS-BASE            SWISSTOPO                               OBSERVER / AGENCY
2691                TRIMBLE 4000SSI     7.29                REC # / TYPE / VERS
99390               TRM29659.00     NONE                    ANT # / TYPE
  4331297.3380   567555.6400  4633133.7180                  APPROX POSITION XYZ
        0.0000        0.0000        0.0000                  ANTENNA: DELTA H/E/N
     1     1     0                                          WAVELENGTH FACT L1/2
     6    C1    P2    L1    L2    D1    D2                  # / TYPES OF OBSERV
    30                                                      INTERVAL
  2002     5    24     0     0    0.000000                  TIME OF FIRST OBS
  2002     5    24    23    59   30.000000                  TIME OF LAST OBS
    28                                                      # OF SATELLITES
   G01   765   765   765   765   765   765                  PRN / # OF OBS
   G02   982   982   982   982   982   982                  PRN / # OF OBS
   G03   733   733   733   733   733   733                  PRN / # OF OBS
   G04   980   980   980   980   980   980                  PRN / # OF OBS
   G05   807   807   807   807   807   807                  PRN / # OF OBS
   G06   765   765   765   765   765   765                  PRN / # OF OBS
   G07  1023  1023  1023  1023  1023  1023                  PRN / # OF OBS
   G08   717   717   717   717   717   717                  PRN / # OF OBS
   G09   803   803   803   803   803   803                  PRN / # OF OBS
   G10   862   862   862   862   862   862                  PRN / # OF OBS
   G11   780   780   780   780   780   780                  PRN / # OF OBS
   G13   779   779   779   779   779   779                  PRN / # OF OBS
   G14  1028  1028  1028  1028  1028  1028                  PRN / # OF OBS
   G15   837   837   837   837   837   837                  PRN / # OF OBS
   G17   900   900   900   900   900   900                  PRN / # OF OBS
   G18   940   940   940   940   940   940                  PRN / # OF OBS
   G20   797   797   797   797   797   797                  PRN / # OF OBS
   G21   939   939   939   939   939   939                  PRN / # OF OBS
   G22   848   848   848   848   848   848                  PRN / # OF OBS
   G23   978   978   978   978   978   978                  PRN / # OF OBS
   G24  1025  1025  1025  1025  1025  1025                  PRN / # OF OBS
   G25   995   995   995   995   995   995                  PRN / # OF OBS
   G26   731   731   731   731   731   731                  PRN / # OF OBS
   G27   721   721   721   721   721   721                  PRN / # OF OBS
   G28   981   981   981   981   981   981                  PRN / # OF OBS
   G29   773   773   773   773   773   773                  PRN / # OF OBS
   G30   770   770   770   770   770   770                  PRN / # OF OBS
   G31   704   704   704   704   704   704                  PRN / # OF OBS
                                                            END OF HEADER
 02  5 24  0  0  0.0320000  0  8G05G07G09G18G21G26G29G30
  31649765.19909  31649769.33709 -13044071.57709  -9995775.40409      2013.855
      1569.237
  32254084.06309  32254088.11909  -5302473.67709  -4013539.57109     -1793.153
     -1397.266
  30001811.50709  30001814.52009 -18399238.10209 -14174009.50809       135.396
       105.502
  33256418.11407  33256420.85706  -1312351.89706   4917453.79306     -2719.450
     -2119.049
  33601556.76206  33601561.19306  -4595919.11206  -1487777.82406      -657.528
      -512.364
  32343101.06009  32343104.84609    118197.88409   6001342.63009     -3794.333
     -2956.623
  30765850.58609  30765853.81009 -12377067.95709  -9505446.64309     -2529.222
     -1970.821
  34025384.16605  34025389.12405  -2399183.27205  -1703177.94805      2916.258
      2272.403
 02  5 24  0  0 30.0320000  0  8G05G07G09G18G21G26G29G30
  31638297.68009  31638302.18109 -13104334.73909 -10042733.66409      2003.162
      1560.905
  32264367.53309  32264371.83508  -5248433.59808  -3971430.40708     -1810.044
     -1410.423
  30001074.98309  30001078.01909 -18403108.34709 -14177025.27609       122.096
        95.139
  33271980.73707  33271985.33206  -1230570.54606   4981179.46506     -2733.167
     -2129.738
  33605362.68106  33605365.81006  -4575919.88906  -1472193.99806      -676.283
      -526.976
  32364787.81309  32364791.91509    232161.65909   6090145.53209     -3803.754
     -2963.964
  30780335.71209  30780339.05309 -12300948.50609  -9446132.80209     -2545.906
     -1983.822
  34008747.61906  34008754.23006  -2486615.52806  -1771306.77506      2912.012
      2269.103
 02  5 24  0  1  0.0320000  0  8G05G07G09G18G21G26G29G30
  31626890.27609  31626894.13309 -13164280.55009 -10089444.63809      1992.708
      1552.758
  32274746.72309  32274750.88408  -5193891.25108  -3928929.85908     -1826.608
     -1423.333
  30000413.64809  30000416.79009 -18406583.01509 -14179732.79909       109.043
        84.968
  33287620.96407  33287625.33606  -1148383.35806   5045221.37606     -2746.494
     -2140.118
  33609274.04506  33609278.11306  -4555362.58706  -1456175.34006      -694.712
      -541.336
  32386527.28109  32386531.24409    346403.68709   6179165.26309     -3812.870
     -2971.067
  30794915.14109  30794918.64609 -12224332.90309  -9386432.35909     -2562.314
     -1996.608
  33992132.61105  33992138.47205  -2573923.62605  -1839338.87405      2908.004
      2265.966
 02  5 24  0  1 30.0320000  0  8G05G07G09G18G21G26G29G30
  31615543.89409  31615547.97309 -13223905.65109 -10135905.70709      1982.006
      1544.420
  32285221.66609  32285225.59308  -5138845.37608  -3886036.96408     -1843.373
     -1436.395
  29999828.40709  29999831.83009 -18409658.90709 -14182129.59709        95.732
        74.595
  33303337.96807  33303341.68406  -1065790.78206   5109579.14506     -2759.934
     -2150.595
  33613292.49706  33613297.17406  -4534245.39006  -1439720.38006      -713.377
      -555.885
  32408319.83309  32408323.97109    460924.44309   6268402.17809     -3822.123
     -2978.277
  30809589.41109  30809592.88109 -12147219.98409  -9326344.39709     -2578.841
     -2009.485
  33975542.87505  33975549.68505  -2661103.86405  -1907271.34805      2903.743
      2262.654
 02  5 24  0  2  0.0320000  0  8G05G07G09G18G21G26G29G30
  31604258.13009  31604262.28009 -13283212.79909 -10182119.02109      1971.612
      1536.319
  32295791.43909  32295795.44809  -5083300.90509  -3842755.55309     -1859.752
     -1449.158
  29999318.39409  29999321.66509 -18412338.91209 -14184217.89709        82.746
        64.478
  33319130.49107  33319134.66406   -982799.41506   5174247.70606     -2772.984
     -2160.760
  33617417.83406  33617423.71905  -4512572.20605  -1422832.21405      -731.699
      -570.153
  32430164.47409  32430168.41309    575717.92709   6357851.61009     -3830.963
     -2985.166
  30824357.17509  30824360.64509 -12069614.91609  -9265872.93309     -2595.018
     -2022.091
  33958976.31205  33958980.94205  -2748158.69505  -1975106.04405      2899.719
      2259.513
 02  5 24  0  2 30.0320000  0  8G05G07G09G18G21G26G29G30
  31593032.23809  31593036.41109 -13342204.16309 -10228086.26409      1961.203
      1528.209
  32306454.94109  32306459.31309  -5027262.44509  -3799089.19409     -1876.057
     -1461.863
  29998883.31109  29998886.50009 -18414625.67209 -14185999.78309        69.767
        54.364
  33334997.78906  33335001.41106   -899415.14106   5239222.40606     -2785.891
     -2170.822
  33621646.58906  33621651.98106  -4490346.74606  -1405513.70106      -749.933
      -584.364
  32452059.87509  32452063.64909    690778.92809   6447509.48709     -3839.699
     -2991.973
  30839217.54209  30839220.84709 -11991522.41809  -9205021.65509     -2611.111
     -2034.631
  33942434.34805  33942439.63505  -2835089.93405  -2042844.54305      2895.757
      2256.431
 02  5 24  0  3  0.0320000  0  8G05G07G09G18G21G26G29G30
  31581867.00609  31581871.56509 -13400877.60809 -10273805.78009      1950.553
      1519.911
  32317212.61309  32317216.90309  -4970729.85909  -3755037.82309     -1892.563
     -1474.724
  29998523.23109  29998526.33809 -18416517.33709 -14187473.80009        56.541
        44.057
  33350939.68506  33350943.65906   -815639.63706   5304501.97406     -2798.942
     -2180.992
  33625981.56606  33625985.23506  -4467568.63806  -1387764.52906      -768.406
      -598.750
  32474006.02309  32474009.89109    806106.68909   6537375.24909     -3848.604
     -2998.913
  30854170.91909  30854174.48209 -11912942.63709  -9143790.68309     -2627.350
     -2047.286
  33925915.45806  33925921.01405  -2921895.25305  -2110484.81405      2891.475
      2253.103
 02  5 24  0  3 30.0320000  0  8G05G07G09G18G21G26G29G30
  31570762.08609  31570766.49309 -13459234.28209 -10319278.46509      1939.966
      1511.661
  32328064.20409  32328068.79908  -4913706.56408  -3710604.07808     -1908.917
     -1487.470
  29998238.33109  29998241.37809 -18418015.18909 -14188640.95409        43.381
        33.803
  33366954.71006  33366957.12506   -731477.54006   5370082.77106     -2811.796
     -2191.010
  33630420.67306  33630425.46705  -4444240.49405  -1369586.75705      -786.743
      -613.048
  32496001.96409  32496006.41909    921696.88309   6627445.48709     -3857.328
     -3005.709
  30869216.32209  30869219.56909 -11833879.18109  -9082182.82709     -2643.458
     -2059.838
  33909419.82305  33909425.33305  -3008575.30705  -2178027.64305      2887.230
      2249.781
 02  5 24  0  4  0.0320000  0  8G05G07G09G18G21G26G29G30
  31559718.14509  31559722.43609 -13517269.84609 -10364500.93009      1929.117
      1503.206
  32339008.58009  32339012.74208  -4856190.50008  -3665786.35008     -1925.419
     -1500.328
  29998028.84709  29998031.77809 -18419115.19909 -14189498.09609        29.995
        23.372
  33383044.22906  33383049.41006   -646928.64406   5435964.93506     -2824.763
     -2201.119
  33634964.99306  33634970.92506  -4420359.66606  -1350978.32706      -805.266
      -627.481
  32518048.27409  32518052.22509   1037550.65609   6717721.10209     -3866.193
     -3012.615
  30884353.78209  30884357.12209 -11754330.35209  -9020196.74809     -2659.747
     -2072.530
  33892951.53106  33892957.66105  -3095125.70505  -2245469.25505      2882.801
      2246.337
 02  5 24  0  4 30.0320000  0  8G05G07G09G18G21G26G29G30
  31548735.28609  31548739.74009 -13574985.58909 -10409474.18809      1918.597
      1495.008
  32350046.85609  32350050.86408  -4798185.26508  -3620587.45508     -1941.576
     -1512.917
  29997895.01309  29997897.99109 -18419818.83009 -14190046.37809        16.920
        13.184
  33399206.20106  33399210.63105   -561997.77105   5502144.80705     -2837.287
     -2210.877
  33639613.73205  33639619.55806  -4395928.88506  -1331941.36606      -823.444
      -641.646
  32540144.31009  32540148.17909   1153663.67609   6808198.74009     -3874.663
     -3019.217
  30899583.14209  30899586.51809 -11674299.78409  -8957835.28809     -2675.626
     -2084.902
  33876505.39505  33876515.40505  -3181547.33105  -2312810.65505      2878.632
      2243.072
 02  5 24  0  5  0.0320000  0  8G05G07G09G18G21G26G29G30
  31537813.89209  31537818.18309 -13632378.42609 -10454195.81909      1907.427
      1486.304
  32361178.11309  32361181.93508  -4739690.03208  -3575006.74608     -1958.281
     -1525.933
  29997836.99509  29997839.98409 -18420123.45809 -14190283.74509         3.220
         2.509
  33415439.83106  33415442.44505   -476685.92905   5568621.49005     -2850.313
     -2221.022
  33644367.88905  33644371.35905  -4370946.74405  -1312474.75805      -842.195
      -656.269
  32562289.01109  32562292.82109   1270035.87509   6898878.34109     -3883.636
     -3026.205
  30914904.23009  30914907.58309 -11593786.91209  -8895098.00709     -2692.064
     -2097.711
  33860083.20005  33860091.19405  -3267836.67805  -2380048.94505      2873.834
      2239.335
 02  5 24  0  5 30.0320000  0  8G05G07G09G18G21G26G29G30
  31526953.14709  31526957.44909 -13689450.77709 -10498667.74509      1896.934
      1478.131
  32372402.02009  32372405.64308  -4680709.52308  -3529047.90208     -1974.208
     -1538.343
  29997854.39609  29997857.40809 -18420031.71509 -14190212.25109        -9.795
        -7.632
  33431746.23406  33431750.61806   -390999.07806   5635390.36906     -2862.575
     -2230.574
  33649226.09306  33649230.24306  -4345417.42206  -1292581.81006      -860.216
      -670.294
  32584481.83909  32584486.21108   1386661.91908   6989755.73108     -3891.865
     -3032.622
  30930316.24109  30930319.68809 -11512796.57509  -8831988.68709     -2707.748
     -2109.932
  33843689.62606  33843695.59306  -3353996.03706  -2447185.91106      2869.677
      2236.108
 02  5 24  0  6  0.0320000  0  8G05G07G09G18G21G26G29G30
  31516154.64609  31516158.54909 -13746198.05509 -10542886.35409      1886.213
      1469.776
  32383718.01909  32383721.73508  -4621241.26308  -3482708.98208     -1990.323
     -1550.903
  29997948.18309  29997951.16009 -18419539.42909 -14189828.64809       -23.029
       -17.945
  33448123.03006  33448127.23906   -304936.52006   5702452.03506     -2874.915
     -2240.191
  33654189.27706  33654194.83306  -4319337.68906  -1272259.95206      -878.425
      -684.486
  32606723.73509  32606728.24808   1503543.38608   7080832.14608     -3900.215
     -3039.127
  30945819.55609  30945823.04909 -11431326.55609  -8768505.57809     -2723.580
     -2122.269
  33827318.76406  33827324.83705  -3440020.49205  -2514217.72505      2865.262
      2232.661
 02  5 24  0  6 30.0320000  0  8G05G07G09G18G21G26G29G30
  31505418.18109  31505421.95509 -13802618.95309 -10586850.65409      1875.307
      1461.277
  32395127.08909  32395131.67308  -4561286.33608  -3435990.85608     -2006.538
     -1563.537
  29998118.25909  29998121.26009 -18418645.35909 -14189131.96609       -36.440
       -28.395
  33464572.60206  33464575.70805   -218500.76105   5769804.47605     -2887.318
     -2249.858
  33659256.32706  33659261.49606  -4292708.00306  -1251509.57606      -896.750
      -698.756
  32629014.01709  32629017.87408   1620678.41608   7172106.14908     -3908.626
     -3045.682
  30961413.69309  30961417.30409 -11349378.43809  -8704649.92209     -2739.508
     -2134.681
  33810974.20305  33810981.72905  -3525908.15705  -2581143.04405      2860.727
      2229.125
 02  5 24  0  7  0.0320000  0  8G05G07G09G18G21G26G29G30
  31494743.40809  31494747.67509 -13858713.36709 -10630560.52009      1864.174
      1452.600
  32406628.52309  32406632.61408  -4500847.23408  -3388895.43808     -2022.881
     -1576.272
  29998364.82909  29998367.91209 -18417349.80709 -14188122.43409       -50.073
       -39.018
  33481090.27106  33481093.64706   -131695.95706   5837444.53106     -2899.785
     -2259.567
  33664428.00706  33664431.12505  -4265530.15205  -1230332.05505      -915.294
      -713.216
  32651351.86609  32651355.96908   1738063.89908   7263575.33108     -3917.169
     -3052.339
  30977098.32909  30977102.05709 -11266954.47609  -8640423.48509     -2755.572
     -2147.197
  33794657.61206  33794661.31705  -3611658.89505  -2647961.68205      2855.880
      2225.359
 02  5 24  0  7 30.0320000  0  8G05G07G09G18G21G26G29G30
  31484130.82709  31484134.89509 -13914483.63309 -10674017.80909      1853.402
      1444.206
  32418220.82609  32418225.32708  -4439928.23808  -3341426.07808     -2038.829
     -1588.699
  29998687.25009  29998690.33309 -18415655.17209 -14186801.93409       -63.342
       -49.359
  33497677.73606  33497679.68106    -44528.07606   5905367.45506     -2911.837
     -2268.967
  33669703.48306  33669708.34706  -4237807.96806  -1208730.34606      -933.338
      -727.279
  32673736.07909  32673740.65108   1855694.51508   7355235.48408     -3925.296
     -3058.669
  30992873.02809  30992876.87309 -11184059.48709  -8575830.01209     -2771.215
     -2159.388
  33778364.52306  33778370.97005  -3697274.76405  -2714675.13405      2851.326
      2221.810
 02  5 24  0  8  0.0320000  0  8G05G07G09G18G21G26G29G30
  31473581.00409  31473584.61409 -13969922.39909 -10717216.80109      1842.303
      1435.560
  32429905.84709  32429909.98508  -4378524.30608  -3293578.85608     -2054.984
     -1601.286
  29999087.09709  29999090.03909 -18413554.53509 -14185165.07209       -76.918
       -59.936
  33514335.42806  33514339.30805     43006.79105   5973576.37005     -2924.035
     -2278.466
  33675083.55606  33675088.83106  -4209535.85406  -1186700.14906      -951.674
      -741.563
  32696168.25909  32696172.36208   1973574.84908   7447090.25008     -3933.597
     -3065.141
  31008737.86209  31008741.30809 -11100688.52709  -8510865.64909     -2787.059
     -2171.733
  33762099.09405  33762104.88505  -3782747.58505  -2781277.20205      2846.593
      2218.105
 02  5 24  0  8 30.0000000  0  8G05G07G09G18G21G26G29G30
  21569941.95309  21569945.84509 -14025037.03309 -10760163.20809      1831.769
      1427.352
  22548530.23509  22548534.50208  -4316641.35608  -3245358.36408     -2070.511
     -1613.385
  20106411.87009  20106414.95309 -18411053.63609 -14183216.31509       -89.923
       -70.070
  23637910.18806  23637913.59905    130902.06805   6042066.09405     -2935.560
     -2287.442
  23787416.20506  23787420.69506  -4180720.32306  -1164246.52006      -969.396
      -755.374
  22825495.39509  22825499.97808   2091700.07208   7539135.83408     -3941.246
     -3071.098
  21131541.34009  21131544.57509 -11016847.06709  -8445534.65709     -2802.285
     -2183.598
  23852708.60506  23852714.24405  -3868085.81105  -2847774.36305      2842.321
      2214.789
 02  5 24  0  9  0.0000000  0  8G05G07G09G18G21G26G29G30
  21559517.16109  21559521.02909 -14079818.39109 -10802849.93909      1820.576
      1418.628
  22560397.45609  22560401.88708  -4254280.28908  -3196765.32508     -2086.630
     -1625.947
  20106964.92009  20106968.10909 -18408147.29309 -14180951.62409      -103.586
       -80.717
  23654704.27306  23654706.99206    219153.55806   6110833.41006     -2947.604
     -2296.836
  23793002.79906  23793007.39405  -4151359.48905  -1141367.95305      -987.744
      -769.665
  22848019.59908  22848023.88908   2210064.69008   7631367.95708     -3949.458
     -3077.495
  21147585.14909  21147588.53709 -10932537.55609  -8379838.96409     -2818.075
     -2195.903
  23836497.15805  23836503.99205  -3953277.80105  -2914157.52305      2837.383
      2210.939
 02  5 24  0  9 30.0000000  0  9G05G07G09G14G18G21G26G29G30
  21549155.48109  21549159.29009 -14134270.99109 -10845280.48409      1809.623
      1410.094
  22572354.60009  22572358.65608  -4191444.25308  -3147802.16908     -2102.399
     -1638.235
  20107594.49509  20107597.64809 -18404838.36609 -14178373.23009      -116.976
       -91.151
  25206190.24705          .00001    -66967.98201          .00011      2910.077
          .000
  23671564.28006  23671568.31205    307757.48105   6179875.34105     -2959.267
     -2305.928
  23798693.88006  23798699.00306  -4121456.70206  -1118067.07106     -1005.741
      -783.694
  22870588.89508  22870592.99708   2328666.68808   7723785.05108     -3957.315
     -3083.624
  21163716.84009  21163720.48509 -10847762.74409  -8313780.69209     -2833.533
     -2207.947
  23820312.68006  23820318.36505  -4038328.79205  -2980430.92105      2832.726
      2207.316
 02  5 24  0 10  0.0000000  0  9G05G07G09G14G18G21G26G29G30
  21538856.17409  21538859.99609 -14188393.29209 -10887453.67309      1798.684
      1401.571
  22584402.11909  22584405.84708  -4128133.80808  -3098469.34608     -2118.118
     -1650.482
  20108301.18909  20108304.27209 -18401125.49409 -14175480.08309      -130.378
      -101.593
  25189589.89804          .00001   -154201.59501          .00011      2905.649
          .000
  23688492.16006  23688495.50106    396711.70806   6249190.27906     -2970.812
     -2314.913
  23804486.85806  23804493.28205  -4091012.26005  -1094344.16505     -1023.718
      -797.696
  22893203.16709  22893207.39908   2447504.89708   7816386.20608     -3965.080
     -3089.669
  21179937.33409  21179941.00309 -10762523.60609  -8247360.61209     -2848.911
     -2219.929
  23804155.35606  23804159.50605  -4123236.94605  -3046592.90905      2827.970
      2203.607
 02  5 24  0 10 30.0000000  0  9G05G07G09G14G18G21G26G29G30
  21528620.50909  21528624.49409 -14242183.00109 -10929367.69209      1787.491
      1392.849
  22596540.34509  22596544.07208  -4064349.19708  -3048767.04408     -2133.990
     -1662.852
  20109084.89509  20109087.87209 -18397006.68709 -14172270.61409      -144.013
      -112.218
  25173017.41104  25173020.84504   -241297.36504    -29394.32804      2900.899
      2260.453
  23705486.41706  23705491.16406    486014.72406   6318776.94606     -2982.491
     -2324.021
  23810383.83906  23810389.41905  -4060025.80705  -1070198.89205     -1041.852
      -811.820
  22915862.04209  22915866.01608   2566578.43608   7909170.73508     -3972.956
     -3095.808
  21196246.40909  21196249.51509 -10676820.29109  -8180578.83609     -2864.453
     -2232.041
  23788024.79706  23788030.00106  -4207999.48706  -3112641.51806      2823.020
      2199.732
 02  5 24  0 11  0.0000000  0  9G05G07G09G14G18G21G26G29G30
  21518447.29209  21518451.65209 -14295643.22709 -10971024.97209      1776.364
      1384.177
  22608767.43309  22608771.50108  -4000095.85108  -2998699.49408     -2149.717
     -1675.103
  20109945.23609  20109948.34309 -18392485.53709 -14168747.63409      -157.556
      -122.770
  25156469.12505  25156477.07305   -328257.02905    -97154.90305      2896.243
      2256.784
  23722544.98906  23722550.58106    575659.56206   6388629.99606     -2993.970
     -2332.962
  23816382.41806  23816389.01805  -4028502.45005  -1045635.23505     -1059.852
      -825.859
  22938564.62608  22938570.10108   2685881.10408   8002133.80008     -3980.687
     -3101.830
  21212642.28009  21212645.48009 -10590658.67509  -8113439.93909     -2879.828
     -2244.021
  23771921.77706  23771926.68805  -4292619.28005  -3178578.90505      2818.159
      2195.957
 02  5 24  0 11 30.0000000  0  9G05G07G09G14G18G21G26G29G30
  21508337.88309  21508341.79809 -14348767.55409 -11012420.51109      1765.273
      1375.537
  22621084.26509  22621087.55908  -3935369.85408  -2948263.64608     -2165.327
     -1687.268
  20110883.11209  20110886.23009 -18387555.79309 -14164906.27109      -171.070
      -133.301
  25139948.21205  25139952.19805   -415072.65905   -164803.42605      2891.491
      2253.118
  23739669.75706  23739674.02305    665648.79705   6458751.39305     -3005.292
     -2341.778
  23822483.49106  23822487.28906  -3996437.38206  -1020649.49906     -1077.796
      -839.835
  22961311.50808  22961316.17308   2805416.28608   8095278.03008     -3988.296
     -3107.758
  21229126.30809  21229129.96509 -10504034.92209  -8045940.93709     -2895.075
     -2255.902
  23755847.74706  23755854.40505  -4377089.52705  -3244399.65805      2813.256
      2192.144
 02  5 24  0 12  0.0000000  0  9G05G07G09G14G18G21G26G29G30
  21498292.96709  21498297.15109 -14401554.07509 -11053552.82009      1753.982
      1366.735
  22633490.93108  22633495.04508  -3870171.60908  -2897459.81108     -2181.077
     -1699.539
  20111899.48409  20111902.56709 -18382215.73109 -14160745.17409      -184.768
      -143.976
  25123454.78504  25123449.24104   -501740.45804   -232336.81704      2886.525
      2249.210
  23756859.17206  23756864.11906    755980.40106   6529139.53406     -3016.654
     -2350.634
  23828689.03406  23828693.13606  -3963830.49906   -995241.53806     -1095.833
      -853.888
  22984102.07908  22984106.48608   2925182.83708   8188602.57508     -3995.968
     -3113.741
  21245698.13809  21245701.72509 -10416949.81809  -7978082.43909     -2910.423
     -2267.861
  23739802.40206  23739807.49005  -4461407.96505  -3310102.22905      2808.165
      2188.168
 02  5 24  0 12 30.0000000  0  9G05G07G09G14G18G21G26G29G30
  21488311.93009  21488316.20809 -14454004.45709 -11094423.20909      1743.018
      1358.196
  22645986.46908  22645991.41608  -3804505.22308  -2846291.19608     -2196.396
     -1711.476
  20112993.27409  20112996.28609 -18376467.39609 -14156265.94909      -198.144
      -154.398
  25106990.21204  25106996.34205   -588260.67705   -299755.06505      2881.820
      2245.567
  23774112.35906  23774115.58205    846648.90905   6599790.23205     -3027.575
     -2359.144
  23834995.82106  23835000.14606  -3930685.39906   -969414.19806     -1113.521
      -867.668
  23006936.25208  23006940.61308   3045176.00808   8282103.68408     -4003.243
     -3119.410
  21262356.87409  21262360.37909 -10329407.55209  -7909867.71509     -2925.383
     -2279.517
  23723785.81906  23723791.65606  -4545575.87006  -3375687.48006      2803.365
      2184.428
 02  5 24  0 13  0.0000000  0  9G05G07G09G14G18G21G26G29G30
  21478395.50009  21478399.72009 -14506114.66109 -11135028.52709      1731.426
      1349.159
  22658571.78508  22658576.58008  -3738368.77908  -2794756.31408     -2212.271
     -1723.850
  20114165.69509  20114168.69609 -18370306.83809 -14151465.51009      -212.130
      -165.297
  25090555.57505  25090560.73305   -674627.53905   -367053.79405      2876.411
      2241.351
  23791430.56806  23791435.86706    937654.91506   6670703.90306     -3039.017
     -2368.064
  23841406.02706  23841410.34105  -3896999.54205   -943165.51105     -1131.758
      -881.902
  23029813.58008  23029817.97508   3165397.03608   8375782.35308     -4011.050
     -3125.494
  21279102.94809  21279106.41809 -10241406.38909  -7841295.40709     -2940.889
     -2291.602
  23707798.81606  23707804.86406  -4629588.67506  -3441151.85906      2797.937
      2180.216
 02  5 24  0 13 30.0000000  0  9G05G07G09G14G18G21G26G29G30
  21468544.10009  21468548.08509 -14557884.75809 -11175368.80509      1720.057
      1340.303
  22671246.21108  22671250.29108  -3671765.00108  -2742857.25008     -2227.848
     -1735.985
  20115416.43909  20115419.61609 -18363734.44809 -14146344.16409      -225.891
      -176.020
  25074148.91504  25074152.26804   -760839.55304   -434231.78104      2871.156
      2237.215
  23808811.98906  23808815.63505   1028994.02605   6741877.17105     -3050.098
     -2376.691
  23847919.25806  23847923.31306  -3862775.22606   -916497.24806     -1149.725
      -895.891
  23052733.63108  23052738.02707   3285842.71507   8469636.07307     -4018.506
     -3131.303
  21295935.73709  21295939.20709 -10152949.54009  -7772368.01809     -2956.095
     -2303.449
  23691841.14806  23691846.67006  -4713446.25206  -3506495.31106      2792.746
      2176.170
 02  5 24  0 14  0.0000000  0  9G05G07G09G14G18G21G26G29G30
  21458756.36609  21458760.52809 -14609319.27209 -11215447.58209      1709.131
      1331.786
  22684008.76309  22684012.71408  -3604700.57408  -2690599.25308     -2242.895
     -1747.708
  20116744.52309  20116747.64109 -18356754.87009 -14140905.52809      -239.201
      -186.390
  25057773.94105  25057775.38205   -846899.29305   -501291.31305      2866.349
      2233.508
  23826254.77206  23826260.36305   1120658.20105   6813303.72505     -3060.618
     -2384.894
  23854532.96906  23854537.54106  -3828018.55406   -889414.12306     -1167.168
      -909.483
  23075694.99208  23075700.15007   3406505.48907   8563658.95407     -4025.456
     -3136.717
  21312853.90809  21312857.36609 -10064043.82209  -7703090.86509     -2970.728
     -2314.851
  23675912.07806  23675918.57206  -4797152.61706  -3571720.84906      2787.931
      2172.398
 02  5 24  0 14 30.0000000  0  9G05G07G09G14G18G21G26G29G30
  21449033.16009  21449037.20409 -14660414.87709 -11255262.27509      1697.619
      1322.818
  22696858.04409  22696861.72408  -3537174.79408  -2637981.75608     -2258.431
     -1759.815
  20118150.78709  20118153.77609 -18349365.11109 -14135147.26609      -253.080
      -197.206
  25041426.72705  25041429.90305   -932802.13805   -568228.53505      2860.875
      2229.251
  23843759.81306  23843764.42006   1212646.72206   6884982.96806     -3071.570
     -2393.429
  23861248.69006  23861252.81605  -3792728.85405   -861915.68405     -1185.124
      -923.474
  23098698.04808  23098703.32307   3527385.70807   8657851.27907     -4032.843
     -3142.473
  21329857.71709  21329861.42109  -9974688.71909  -7633463.54009     -2985.865
     -2326.648
  23660012.48406  23660017.50106  -4880704.14406  -3636825.80406      2782.554
      2168.224
 02  5 24  0 15  0.0000000  0  9G05G07G09G14G18G21G26G29G30
  21439375.38909  21439379.31609 -14711165.87509 -11294808.46109      1686.126
      1313.865
  22709796.09409  22709799.91508  -3469184.43808  -2585002.25408     -2273.906
     -1771.875
  20119635.98909  20119638.91909 -18341559.52809 -14129064.99009      -266.942
      -208.007
  25025112.12705  25025112.95905  -1018540.63105   -635037.68905      2855.360
      2224.968
  23861327.52006  23861329.95805   1304961.37705   6956916.39305     -3082.379
     -2401.850
  23868066.21106  23868070.95806  -3756902.09206   -833998.73406     -1202.986
      -937.390
  23121742.65808  23121747.21707   3648485.99407   8752215.10007     -4040.144
     -3148.165
  21346947.60209  21346951.42409  -9884881.09109  -7563483.59909     -3000.923
     -2338.380
  23644143.87106  23644148.60706  -4964094.70706  -3701805.36406      2777.155
      2164.015
 02  5 24  0 15 30.0000000  0  9G05G07G09G14G18G21G26G29G30
  21429782.02809  21429785.93209 -14761580.04509 -11334092.18409      1674.720
      1304.976
  22722820.53808  22722824.78108  -3400739.62208  -2531668.62908     -2289.173
     -1783.772
  20121199.06009  20121202.02509 -18333346.27509 -14122665.04709      -280.708
      -218.734
  25008824.97504  25008827.43705  -1104120.60205   -701723.26605      2849.873
      2220.682
  23878953.50205  23878960.81705   1397590.81105   7029095.06705     -3093.002
     -2410.131
  23874984.13906  23874987.83106  -3720547.84506   -805670.78006     -1220.718
      -951.210
  23144827.14808  23144831.74307   3769795.49507   8846741.92107     -4047.265
     -3153.712
  21364121.47409  21364125.30809  -9794631.57709  -7493159.32609     -3015.783
     -2349.961
  23628304.28306  23628309.83906  -5047331.67206  -3766665.11906      2771.855
      2159.890
 02  5 24  0 16  0.0000000  0  9G05G07G09G14G18G21G26G29G30
  21420252.70609  21420256.65609 -14811655.08309 -11373111.65909      1663.511
      1296.241
  22735931.77708  22735935.99708  -3331840.54808  -2477981.03208     -2304.192
     -1795.474
  20122840.00109  20122842.95509 -18324723.32309 -14115945.86309      -294.252
      -229.288
  24992568.97104  24992569.95605  -1189538.34705   -768282.61705      2844.541
      2216.507
  23896640.50906  23896643.94405   1490533.32705   7101517.65705     -3103.242
     -2418.106
  23882002.34506  23882006.56506  -3683665.74806   -776931.48106     -1238.161
      -964.806
  23167951.36008  23167956.54107   3891313.63107   8941431.31807     -4054.043
     -3158.990
  21381379.44309  21381382.78409  -9703940.43209  -7422490.92509     -3030.379
     -2361.333
  23612494.29706  23612501.48306  -5130412.45406  -3831403.31906      2766.762
      2155.905
 02  5 24  0 16 30.0000000  0  9G05G07G09G14G18G21G26G29G30
  21410789.41409  21410793.16509 -14861386.53309 -11411863.39209      1652.049
      1287.309
  22749129.66708  22749134.25008  -3262485.10808  -2423937.83108     -2319.363
     -1807.293
  20124559.47209  20124562.36709 -18315686.33909 -14108904.05309      -308.078
      -240.060
  24976348.36905  24976349.30704  -1274787.56804   -834710.47004      2838.882
      2212.115
  23914387.17406  23914390.93705   1583789.60905   7174184.81205     -3113.679
     -2426.241
  23889121.84706  23889125.39906  -3646253.51206   -747779.09606     -1255.822
      -978.569
  23191115.35208  23191119.59507   4013041.85807   9036284.42707     -4061.016
     -3164.428
  21398721.66309  21398725.47309  -9612805.85609  -7351476.99309     -3045.143
     -2372.840
  23596715.04406  23596719.66306  -5213332.07706  -3896015.92706      2761.365
      2151.709
 02  5 24  0 17  0.0000000  0  9G05G07G09G14G18G21G26G29G30
  21401392.53909  21401396.27809 -14910767.61009 -11450342.11709      1640.164
      1278.050
  22762415.09208  22762419.68708  -3192669.08808  -2369535.73908     -2334.884
     -1819.389
  20126359.30909  20126362.25109 -18306228.83009 -14101534.56409      -322.278
      -251.126
  24960160.64305  24960163.80805  -1359859.90705   -901000.46505      2832.721
      2207.315
  23932193.24706  23932197.73705   1677362.67805   7247098.79905     -3124.383
     -2434.580
  23896343.15606  23896348.04406  -3608306.71206   -718210.18206     -1273.788
      -992.564
  23214320.25207  23214324.73007   4134983.81607   9131304.07507     -4068.279
     -3170.086
  21416149.24509  21416152.90209  -9521223.78109  -7280114.37509     -3060.173
     -2384.549
  23580967.93006  23580973.76706  -5296083.34306  -3960497.22206      2755.553
      2147.178
 02  5 24  0 17 30.0000000  0  9G05G07G09G14G18G21G26G29G30
  21392061.18609  21392065.10109 -14959803.74609 -11488552.05609      1628.693
      1269.110
  22775786.89908  22775790.92007  -3122400.19807  -2314780.75107     -2349.927
     -1831.110
  20128237.75809  20128240.74709 -18296356.62009 -14093841.93009      -336.076
      -261.878
  24944005.17105  24944008.24205  -1444758.78105   -967155.39805      2826.972
      2202.833
  23950057.89406  23950061.31605   1771243.14205   7320252.29305     -3134.528
     -2442.479
  23903664.33106  23903669.51306  -3569832.64206   -688230.41306     -1291.332
     -1006.236
  23237563.55808  23237567.84807   4257131.12607   9226483.73807     -4075.060
     -3175.367
  21433660.49909  21433664.27409  -9429202.31709  -7208409.35509     -3074.756
     -2395.913
  23565251.91106  23565257.94806  -5378671.30706  -4024851.40506      2750.124
      2142.945
 02  5 24  0 18  0.0000000  0  9G05G07G09G14G18G21G26G29G30
  21382796.38809  21382800.01009 -15008490.68409 -11526489.89009      1617.319
      1260.246
  22789245.33508  22789249.41507  -3051676.64107  -2259671.48507     -2364.787
     -1842.689
  20130196.19109  20130199.30909 -18286065.51709 -14085822.88109      -349.781
      -272.558
  24927882.88405  24927885.49805  -1529478.26805  -1033170.47805      2821.207
      2198.356
  23967981.65306  23967987.19805   1865431.57805   7393645.75005     -3144.476
     -2450.231
  23911086.58806  23911092.25005  -3530828.65405   -657837.71805     -1308.701
     -1019.769
  23260847.47608  23260852.14207   4379485.16107   9321824.48907     -4081.645
     -3180.501
  21451255.33509  21451258.78209  -9336739.86509  -7136360.72109     -3089.167
     -2407.144
  23549568.26207  23549572.59906  -5461091.31206  -4089074.67206      2744.783
      2138.790
 02  5 24  0 18 30.0000000  0  9G05G07G09G14G18G21G26G29G30
  21373597.03709  21373600.35509 -15056833.19509 -11564159.33209      1605.609
      1251.123
  22802788.88908  22802793.20308  -2980505.46608  -2204213.42708     -2379.860
     -1854.440
  20132233.31409  20132236.42009 -18275360.43809 -14077481.26309      -363.800
      -283.480
  24911795.72205  24911792.03004  -1614021.10804  -1099047.96304      2815.056
      2193.565
  23985961.27405  23985965.89305   1959919.21705   7467272.39305     -3154.616
     -2458.130
  23918608.04006  23918613.03405  -3491301.54505   -627037.37305     -1326.324
     -1033.503
  23284168.56907  23284173.11707   4502038.30507   9417320.38707     -4088.443
     -3185.799
  21468932.99109  21468936.60209  -9243843.95209  -7063974.32309     -3103.797
     -2418.542
  23533915.17807  23533920.40606  -5543347.46506  -4153170.18006      2739.061
      2134.327
 02  5 24  0 19  0.0000000  0  9G05G07G09G14G18G21G26G29G30
  21364463.24709  21364466.98609 -15104831.42009 -11601560.50509      1594.165
      1242.205
  22816417.27709  22816421.42708  -2908889.53508  -2148408.81108     -2394.637
     -1865.953
  20134349.04009  20134352.07609 -18264241.87209 -14068817.44409      -377.542
      -294.189
  24895741.58705  24895743.90805  -1698385.95105  -1164786.74905      2809.138
      2188.933
  24003999.21606  24004003.43605   2054702.19505   7541129.10605     -3164.356
     -2465.741
  23926228.75406  23926232.73906  -3451253.91306   -595831.44006     -1343.616
     -1046.974
  23307526.66107  23307531.91207   4624787.36807   9512968.95407     -4094.887
     -3190.818
  21486692.61409  21486696.06009  -9150517.24909  -6991252.24509     -3118.080
     -2429.672
  23518293.95207  23518298.54707  -5625439.65407  -4217138.01007      2733.614
      2130.079
 02  5 24  0 19 30.0000000  0  9G05G07G09G14G18G21G26G29G30
  21355395.27709  21355398.98109 -15152483.39109 -11638691.87609      1582.534
      1233.143
  22830129.33208  22830133.00108  -2836829.14108  -2092257.84208     -2409.498
     -1877.531
  20136543.88809  20136546.87709 -18252707.83809 -14059829.88009      -391.487
      -305.055
  24879721.05104  24879729.11605  -1782569.14905  -1230383.97805      2802.967
      2184.118
  24022091.14506  24022096.04505   2149778.88405   7615214.76505     -3174.167
     -2473.381
  23933949.27906  23933956.03106  -3410685.42106   -564219.64206     -1361.036
     -1060.552
  23330922.19007  23330926.62107   4747731.25907   9608769.33707     -4101.437
     -3195.923
  21504533.85009  21504537.40209  -9056760.61109  -6918195.14509     -3132.428
     -2440.852
  23502703.33407  23502708.23406  -5707365.44406  -4280976.19506      2727.973
      2125.683
 02  5 24  0 20  0.0000000  0  9G05G07G09G14G18G21G26G29G30
  21346393.44609  21346397.27909 -15199788.24509 -11675552.76509      1571.204
      1224.314
  22843926.61008  22843930.70108  -2764326.21708  -2035762.04108     -2423.969
     -1888.808
  20138817.99709  20138820.82209 -18240757.80509 -14050518.16609      -405.103
      -315.665
  24863736.93405  24863742.64304  -1866567.68104  -1295837.29504      2797.018
      2179.525
  24040238.88906  24040241.84305   2245145.79505   7689526.54005     -3183.537
     -2480.677
  23941767.13306  23941772.15105  -3369597.73305   -532203.26705     -1378.057
     -1073.806
  23354354.50307  23354359.49707   4870868.00407   9704719.98007     -4107.587
     -3200.712
  21522456.48509  21522460.36509  -8962575.93809  -6844804.52809     -3146.445
     -2451.773
  23487145.33006  23487151.26206  -5789123.59706  -4344683.67906      2722.629
      2121.533
 02  5 24  0 20 30.0000000  0  9G05G07G09G14G18G21G26G29G30
  21337457.82709  21337461.90609 -15246745.34509 -11712142.67209      1559.491
      1215.187
  22857807.08108  22857810.75007  -2691382.38807  -1978922.68307     -2438.737
     -1900.315
  20141171.20609  20141174.20709 -18228391.53609 -14040882.10909      -419.097
      -326.569
  24847787.51405  24847789.30705  -1950379.25905  -1361144.86305      2790.612
      2174.509
  24058441.95706  24058446.32905   2340800.20705   7764062.32005     -3193.181
     -2488.189
  23949684.47706  23949688.99006  -3327992.24906   -499783.43106     -1395.400
     -1087.323
  23377822.81707  23377827.85807   4994195.09307   9800818.96407     -4113.990
     -3205.707
  21540460.39909  21540463.89309  -8867965.32509  -6771082.00109     -3160.722
     -2462.899
  23471618.99906  23471624.67206  -5870712.96106  -4408259.66306      2716.887
      2117.048
 02  5 24  0 21  0.0000000  0  9G05G07G09G14G18G21G26G29G30
  21328588.84409  21328592.81809 -15293351.44209 -11748459.07609      1547.873
      1206.133
  22871771.75308  22871775.79707  -2617996.80107  -1921739.11407     -2453.347
     -1911.699
  20143604.22309  20143607.20009 -18215605.98009 -14030919.33409      -432.996
      -337.399
  24831874.09105  24831876.51805  -2033998.63405  -1426302.88005      2784.281
      2169.568
  24076698.31706  24076702.58405   2436741.51705   7838821.66205     -3202.589
     -2495.512
  23957700.92306  23957703.83005  -3285867.57405   -466959.03505     -1412.607
     -1100.731
  23401327.92807  23401332.41807   5117713.00307   9897066.63307     -4120.219
     -3210.559
  21558545.55209  21558549.04509  -8772928.15909  -6697027.09309     -3174.793
     -2473.863
  23456125.98407  23456129.20806  -5952129.63806  -4471701.12406      2711.201
      2112.615
 02  5 24  0 21 30.0000000  0  9G05G07G09G14G18G21G26G29G30
  21319785.77709  21319789.63409 -15339611.40509 -11784505.76809      1536.183
      1197.024
  22885819.35708  22885823.65907  -2544176.81907  -1864217.05407     -2467.914
     -1923.049
  20146116.21409  20146119.00309 -18202405.94609 -14020633.59209      -446.960
      -348.280
  24815998.40405  24816001.13505  -2117429.01405  -1491313.46305      2777.813
      2164.552
  24095008.98906  24095012.79805   2532961.04905   7913797.81505     -3211.960
     -2502.810
  23965814.99706  23965821.17406  -3243230.70006   -433735.52906     -1429.797
     -1114.127
  23424867.17407  23424871.82807   5241413.90607   9993456.89907     -4126.448
     -3215.409
  21576710.11309  21576713.72409  -8677472.03909  -6622645.73609     -3188.861
     -2484.824
  23440665.28807  23440668.24206  -6033378.25906  -4535011.62306      2705.422
      2108.119
 02  5 24  0 22  0.0000000  0  9G05G07G09G14G18G21G26G29G30
  21311049.12209  21311053.44809 -15385522.76809 -11820280.81209      1524.413
      1187.853
  22899949.52108  22899953.13107  -2469922.37507  -1806356.45207     -2482.496
     -1934.411
  20148707.21209  20148709.97809 -18188789.11209 -14010023.07509      -460.995
      -359.216
  24800159.48505  24800163.52905  -2200665.90605  -1556173.29605      2771.178
      2159.356
  24113371.10806  24113378.18805   2629457.42805   7988989.72905     -3221.267
     -2510.078
  23974025.39106  23974031.51006  -3200081.30306   -400112.65706     -1446.984
     -1127.524
  23448441.46807  23448446.69607   5365297.31507  10089989.36307     -4132.612
     -3220.216
  21594954.33709  21594957.81909  -8581597.30309  -6547938.18109     -3202.925
     -2495.784
  23425236.39307  23425240.95306  -6114455.84006  -4598188.81306      2699.577
      2103.561
 02  5 24  0 22 30.0000000  0  9G05G07G09G14G18G21G26G29G30
  21302379.74909  21302383.67509 -15431080.79309 -11855780.54209      1512.646
      1178.684
  22914162.58508  22914166.34808  -2395231.41508  -1748155.68908     -2497.020
     -1945.727
  20151378.83009  20151381.59609 -18174751.06709 -13999084.33509      -475.020
      -370.145
  24784358.67905  24784362.48805  -2283702.93405  -1620877.46405      2764.458
      2154.118
  24131787.14406  24131793.05205   2726231.60105   8064398.00205     -3230.451
     -2517.237
  23982334.77606  23982338.93706  -3156416.65406   -366088.26306     -1464.106
     -1140.862
  23472050.51207  23472055.17807   5489364.87307  10186665.32007     -4138.694
     -3224.953
  21613278.88109  21613282.82009  -8485301.77509  -6472902.73609     -3216.877
     -2506.656
  23409841.32007  23409846.26707  -6195357.29107  -4661228.78107      2693.714
      2098.993
 02  5 24  0 23  0.0000000  0  9G05G07G09G14G18G21G26G29G30
  21293777.72909  21293781.96109 -15476284.27709 -11891004.00209      1500.984
      1169.597
  22928458.73008  22928463.25507  -2320105.17007  -1689615.75507     -2511.320
     -1956.874
  20154130.39409  20154132.99709 -18160291.05109 -13987816.78809      -488.923
      -380.979
  24768594.85505  24768597.76205  -2366536.97705  -1685423.37305      2757.855
      2148.980
  24150254.18206  24150258.08605   2823280.93805   8140020.80605     -3239.408
     -2524.205
  23990741.14705  23990746.16406  -3112238.17406   -331663.49306     -1481.039
     -1154.052
  23495694.45607  23495699.01607   5613614.98807  10283483.53607     -4144.573
     -3229.534
  21631683.16409  21631687.09109  -8388587.45409  -6397540.97309     -3230.637
     -2517.379
  23394480.33307  23394485.92407  -6276080.98407  -4724130.24407      2687.932
      2094.488
 02  5 24  0 23 30.0000000  0  9G05G07G09G14G18G21G26G29G30
  21285242.83109  21285246.80509 -15521136.47109 -11925953.72409      1488.987
      1160.248
  22942836.35208  22942840.65407  -2244549.44507  -1630741.16607     -2525.881
     -1968.221
  20156961.57609  20156964.63609 -18145412.41909 -13976223.04709      -503.152
      -392.066
  24752871.87105  24752875.70405  -2449169.13305  -1749812.06605      2750.788
      2143.476
  24168773.75105  24168778.35805   2920598.42105   8215852.45305     -3248.554
     -2531.320
  23999245.20406  23999249.96306  -3067551.05006   -296842.41206     -1498.234
     -1167.449
  23519372.69707  23519377.29207   5738041.42607  10380439.14407     -4150.671
     -3234.287
  21650165.91609  21650168.91709  -8291460.00609  -6321857.26509     -3244.657
     -2528.303
  23379151.99807  23379155.81907  -6356629.51307  -4786895.17007      2681.802
      2089.721
 02  5 24  0 24  0.0000000  0  9G05G07G09G14G18G21G26G29G30
  21276774.61409  21276778.07209 -15565635.60309 -11960628.33909      1477.745
      1151.488
  22957295.50207  22957299.05407  -2168565.08307  -1571532.56607     -2539.596
     -1978.906
  20159872.93609  20159876.01909 -18130113.95709 -13964302.16409      -516.612
      -402.555
  24737183.75004  24737185.80105  -2531596.05205  -1814040.82205      2744.463
      2138.537
  24187343.72305          .00001   3018181.76401          .00011     -3256.817
          .000
  24007845.88806  24007850.53005  -3022356.28105   -261625.74605     -1514.594
     -1180.191
  23543083.38907  23543088.30007   5862642.93007  10477531.17607     -4155.937
     -3238.390
  21668726.83909  21668730.68409  -8193920.78309  -6245852.71609     -3257.816
     -2538.559
  23363857.79508  23363861.20607  -6437000.89607  -4849522.12807      2676.406
      2085.508
 02  5 24  0 24 30.0000000  0  9G05G07G09G14G18G21G26G29G30
  21268373.71309  21268377.54609 -15609783.16809 -11995029.00909      1465.497
      1141.943
  22971835.87307  22971840.25807  -2092155.69507  -1511992.77207     -2554.263
     -1990.335
  20162863.66809  20162866.58709 -18114396.73309 -13952054.97409      -531.110
      -413.852
  24721539.70905  24721544.83205  -2613817.21405  -1878109.16405      2737.032
      2132.726
  24205963.14906          .00001   3116026.36501          .00011     -3266.025
          .000
  24016541.85706  24016547.36606  -2976657.32106   -226016.15906     -1531.921
     -1193.703
  23566826.50907  23566831.63107   5987415.34007  10574756.35107     -4162.136
     -3243.222
  21687365.80809  21687369.73509  -8095973.61109  -6169530.28009     -3271.904
     -2549.534
  23348597.07007  23348601.13707  -6517195.84107  -4912011.60807      2670.001
      2080.514
 02  5 24  0 25  0.0000000  0  9G05G07G09G14G18G21G26G29G30
  21260041.32609  21260044.79609 -15653571.24309 -12029149.55909      1453.680
      1132.737
  22986458.13508  22986462.49507  -2015315.97407  -1452117.67407     -2568.381
     -2001.336
  20165935.66009  20165938.48509 -18098253.28109 -13939475.66109      -545.133
      -424.779
  24705935.41706  24705938.91105  -2695822.58105  -1942009.43805      2729.967
      2127.255
  24224631.73905  24224634.85705   3214136.08405      2548.87405     -3274.628
     -2551.663
  24025336.09006  24025341.81105  -2930447.77405   -190008.77005     -1548.715
     -1206.796
  23590603.98707  23590608.61707   6112363.66507  10672118.62407     -4167.755
     -3247.605
  21706083.04009  21706086.76709  -7997613.35109  -6092885.94709     -3285.457
     -2560.094
  23333371.00407  23333375.35306  -6597205.99006  -4974357.06206      2664.000
      2075.837
 02  5 24  0 25 30.0000000  0  9G05G07G09G14G18G21G26G29G30
  21251776.04809  21251779.78809 -15697004.77409 -12062993.83709      1441.804
      1123.483
  23001160.60407  23001164.75407  -1938053.33207  -1391913.01407     -2582.502
     -2012.336
  20169087.76709  20169090.95609 -18081688.75009 -13926568.23209      -559.244
      -435.773
  24690369.85105  24690372.54705  -2777615.27005  -2005743.92605      2722.799
      2121.661
  24243351.61606  24243356.86805   3312501.98505     79197.46105     -3283.165
     -2558.295
  24034224.31405  24034229.77705  -2883735.42205   -153609.55805     -1565.518
     -1219.874
  23614412.85007  23614417.60907   6237480.04007  10769611.84407     -4173.389
     -3251.988
  21724877.67409  21724881.58909  -7898847.83109  -6015925.83609     -3298.984
     -2570.635
  23318180.05307  23318185.08207  -6677035.69007  -5036561.89407      2657.902
      2071.094
 02  5 24  0 26  0.0000000  0  9G05G07G09G14G18G21G26G29G30
  21243579.32409  21243583.04009 -15740078.83409 -12096558.01109      1429.847
      1114.165
  23015944.17207  23015948.59107  -1860365.59607  -1331377.11807     -2596.610
     -2023.335
  20172321.08909  20172324.30109 -18064698.45109 -13913329.03709      -573.406
      -446.809
  24674847.76506  24674849.58205  -2859188.60405  -2069307.47105      2715.439
      2115.934
  24262118.39905  24262123.14605   3411125.34405    156046.66305     -3291.677
     -2564.938
  24043209.05505  24043214.28305  -2836517.46105   -116816.38705     -1582.284
     -1232.954
  23638254.00707  23638259.21207   6362766.42407  10867237.52707     -4178.970
     -3256.340
  21743749.39409  21743753.29709  -7799675.04509  -5938648.37309     -3312.501
     -2581.167
  23303024.87007  23303029.33607  -6756679.70107  -5098622.05907      2651.747
      2066.293
 02  5 24  0 26 30.0000000  0  9G05G07G09G14G18G21G26G29G30
  21235449.54009  21235453.12709 -15782800.53309 -12129847.61409      1418.109
      1105.019
  23030806.83307  23030811.30007  -1782262.14007  -1270517.29307     -2610.422
     -2034.093
  20175633.63109  20175636.76009 -18047289.66409 -13899763.74709      -587.344
      -457.672
  24659364.06005  24659368.26805  -2940547.57505  -2132704.07905      2708.304
      2110.361
  24280932.51305  24280934.86905   3509995.20905    233088.09005     -3299.791
     -2571.274
  24052288.91305  24052293.71905  -2788803.62205    -79636.79505     -1598.754
     -1245.766
  23662125.54707  23662130.45807   6488212.78207  10964987.86007     -4184.251
     -3260.455
  21762697.17309  21762701.01809  -7700104.78409  -5861061.19709     -3325.659
     -2591.421
  23287903.05807  23287906.59907  -6836144.76207  -5160542.82007      2645.774
      2061.640
 02  5 24  0 27  0.0000000  0  9G05G07G09G14G18G21G26G29G30
  21227388.58009  21227392.13209 -15825160.97609 -12162855.71809      1406.177
      1095.721
  23045749.41807  23045753.47407  -1703736.69807  -1209328.63207     -2624.333
     -2044.938
  20179027.74109  20179030.70709 -18029453.73509 -13885865.62009      -601.455
      -468.667
  24643925.95105  24643930.28805  -3021681.13005  -2195925.01605      2700.868
      2104.583
  24299795.32106  24299799.72805   3609116.53605    310325.36905     -3308.008
     -2577.651
  24061464.60706  24061470.63205  -2740586.84905    -42065.30505     -1615.403
     -1258.749
  23686029.06807  23686033.58107   6613825.15407  11062867.59207     -4189.622
     -3264.640
  21781721.60309  21781725.42509  -7600130.93809  -5783159.52909     -3338.966
     -2601.792
  23272816.79307  23272821.44607  -6915421.28807  -5222316.61207      2639.580
      2056.816
 02  5 24  0 27 30.0000000  0  9G05G07G09G14G18G21G26G29G30
  21219396.06309  21219399.41609 -15867162.96509 -12195584.51109      1394.226
      1086.409
  23060771.77708  23060775.32907  -1624794.53407  -1147815.24807     -2638.189
     -2055.732
  20182502.64509  20182505.90309 -18011193.43809 -13871636.81709      -615.612
      -479.697
  24628528.96305  24628532.08105  -3102590.19905  -2258970.98905      2693.353
      2098.710
  24318704.61206  24318709.81705   3708483.01705    387753.71605     -3316.107
     -2583.985
  24070734.75306  24070738.99606  -2691872.21706     -4105.88106     -1631.950
     -1271.651
  23709962.91907  23709967.79507   6739597.96307  11160872.30407     -4194.932
     -3268.772
  21800821.72309  21800825.41509  -7499758.95909  -5704947.63509     -3352.191
     -2612.096
  23257765.52507  23257769.62807  -6994511.51407  -5283945.21007      2633.369
      2051.972
 02  5 24  0 28  0.0000000  0  9G05G07G09G14G18G21G26G29G30
  21211471.61309  21211475.24709 -15908805.36509 -12228033.10909      1381.702
      1076.649
  23075873.00408  23075876.43807  -1545437.11107  -1085978.27207     -2652.539
     -2066.917
  20186058.25609  20186061.46809 -17992508.15509 -13857076.86009      -630.306
      -491.147
  24613174.62904  24613176.49305  -3183271.79605  -2321839.76105      2685.190
      2092.348
  24337659.53506  24337663.79005   3808091.84705    465370.81105     -3324.679
     -2590.654
  24080099.28106  24080104.31005  -2642661.38705     34240.18805     -1648.991
     -1284.923
  23733926.73207  23733931.35107   6865529.42407  11259000.63607     -4200.720
     -3273.288
  21819997.13909  21820000.52609  -7398990.77009  -5626426.99709     -3365.896
     -2622.774
  23242751.33507  23242756.69207  -7073414.01807  -5345427.59707      2626.564
      2046.669
 02  5 24  0 28 30.0000000  0  9G05G07G09G14G18G21G26G29G30
  21203615.49109  21203619.31209 -15950089.87809 -12260202.83509      1370.569
      1067.975
  23091052.51307  23091056.56907  -1465668.57807  -1023820.98107     -2665.384
     -2076.923
  20189694.52909  20189697.71809 -17973399.57409 -13842187.06109      -643.624
      -501.525
  24597864.94305  24597864.81405  -3263725.61205  -2384531.02105      2678.360
      2087.049
  24356658.52805  24356663.00605   3907938.08905    543173.01805     -3331.730
     -2596.146
  24089557.46005  24089563.63705  -2592957.82405     72970.15405     -1664.614
     -1297.103
  23757919.73207  23757924.77207   6991614.86807  11357248.96807     -4204.994
     -3276.613
  21839247.56209  21839251.87609  -7297830.75209  -5547601.05509     -3378.119
     -2632.298
  23227772.27208  23227776.69107  -7152129.79607  -5406764.45807      2621.120
      2042.428
 02  5 24  0 29  0.0000000  0  9G05G07G09G14G18G21G26G29G30
  21195827.05509  21195830.86509 -15991017.94809 -12292094.80709      1358.310
      1058.423
  23106309.10207  23106313.06407  -1385492.90207   -961346.43607     -2679.282
     -2087.752
  20193411.11009  20193414.32209 -17953869.50109 -13826968.81609      -658.047
      -512.763
  24582598.79405  24582600.77505  -3343950.89205  -2447044.18305      2670.328
      2080.787
  24375703.51205  24375709.85405   4008016.40105    621156.00205     -3339.801
     -2602.442
  24099108.28205  24099112.74805  -2542765.31105    112081.19205     -1681.259
     -1310.061
  23781941.29307  23781946.68607   7117850.12007  11455614.02507     -4210.324
     -3280.772
  21858571.44709  21858575.26909  -7196283.07709  -5468473.04109     -3391.369
     -2642.624
  23212828.73007  23212832.98507  -7230659.75007  -5467956.53507      2614.556
      2037.316
 02  5 24  0 29 30.0000000  0  9G05G07G09G14G18G21G26G29G30
  21188106.06109  21188109.88209 -16031591.52309 -12323710.55009      1346.590
      1049.290
  23121642.66107  23121647.01007  -1304914.65107   -898558.19807     -2692.585
     -2098.123
  20197207.12209  20197210.34609 -17933920.12709 -13811423.84709      -671.916
      -523.571
  24567375.68205  24567379.60905  -3423947.72705  -2509379.30605      2662.795
      2074.897
  24394790.21505  24394795.95905   4108320.78605    699315.15505     -3347.164
     -2608.171
  24108752.81805  24108757.96405  -2492088.09405    151569.92005     -1697.270
     -1322.547
  23805991.43407  23805996.38107   7244230.27407  11554092.00307     -4215.001
     -3284.415
  21877968.15809  21877971.82709  -7094352.74109  -5389046.82309     -3403.977
     -2652.448
  23197919.51807  23197923.80807  -7309005.50007  -5529005.07607      2608.504
      2032.602
 02  5 24  0 30  0.0000000  0  9G05G07G09G14G18G21G26G29G30
  21180453.71009  21180457.69609 -16071805.57409 -12355046.14409      1334.528
      1039.891
  23137053.52007  23137057.00107  -1223931.15007   -835454.17207     -2706.118
     -2108.663
  20201084.14109  20201087.27009 -17913546.56509 -13795548.34409      -686.134
      -534.650
  24552198.13605  24552200.21105  -3503708.97305  -2571530.90105      2654.806
      2068.672
  24413921.89806  24413926.08305   4208852.68605    777651.55005     -3354.761
     -2614.088
  24118488.56305  24118493.65005  -2440924.04805    191437.98005     -1713.515
     -1335.207
  23830068.78207  23830074.10307   7370757.55007  11652684.60807     -4219.938
     -3288.262
  21897438.18509  21897442.17009  -6992037.27409  -5309320.53109     -3416.863
     -2662.490
  23183046.56707  23183052.65107  -7387161.37107  -5589905.66507      2602.086
      2027.597
 02  5 24  0 30 30.0000000  0  9G05G07G09G14G18G21G26G29G30
  21172870.06109  21172873.84709 -16111656.84709 -12386099.06009      1322.246
      1030.320
  23152541.51907  23152545.39907  -1142541.96707   -772034.01307     -2719.817
     -2119.341
  20205042.36409  20205045.30609 -17892745.87109 -13779340.01809      -700.554
      -545.885
  24537066.64806  24537069.77805  -3583229.61205  -2633494.95605      2646.561
      2062.263
  24433095.98605  24433101.10805   4309611.38205    856164.77805     -3362.451
     -2620.100
  24128317.30106  24128323.20805  -2389272.57705    231685.81805     -1729.921
     -1347.985
  23854174.12107  23854180.22806   7497432.21706  11751392.07406     -4225.012
     -3292.209
  21916981.63509  21916985.29209  -6889336.59909  -5229294.07209     -3429.818
     -2672.584
  23168211.30507  23168215.60707  -7465123.71407  -5650655.43707      2595.409
      2022.393
 02  5 24  0 31  0.0000000  0  9G05G07G09G14G18G21G26G29G30
  21165356.30109  21165360.04009 -16151142.58609 -12416867.13609      1309.888
      1020.689
  23168106.27107  23168110.15107  -1060746.71007   -708297.46107     -2733.440
     -2129.953
  20209082.43509  20209085.48309 -17871515.32909 -13762796.73609      -715.061
      -557.191
  24521980.61605  24521981.61305  -3662504.63805  -2695267.67205      2638.175
      2055.722
  24452312.31405  24452317.75305   4410596.00305    934853.97205     -3370.077
     -2626.041
  24138239.77406  24138244.90805  -2337132.87005    272314.11705     -1746.293
     -1360.762
  23878307.56207  23878312.56806   7624254.36906  11850214.46306     -4230.033
     -3296.125
  21936598.26209  21936602.07209  -6786250.40009  -5148967.19709     -3442.809
     -2682.707
  23153412.74207  23153416.17707  -7542889.08107  -5711251.75307      2588.672
      2017.143
 02  5 24  0 31 30.0000000  0  9G05G07G09G14G18G21G26G29G30
  21157911.39709  21157915.19509 -16190265.01209 -12447352.11709      1298.152
      1011.547
  23183747.77607  23183752.25407   -978550.03207   -644248.10707     -2746.432
     -2140.075
  20213203.98509  20213207.15009 -17849857.21309 -13745920.28309      -728.943
      -568.008
  24506941.09205  24506943.80005  -3741534.11805  -2756849.11805      2630.307
      2049.584
  24471570.71405  24471577.79405   4511800.97605   1013714.90105     -3377.016
     -2631.434
  24148253.28205  24148259.88105  -2284509.39905    313319.40605     -1762.047
     -1373.024
  23902468.11207  23902474.44206   7751219.00506  11949147.84006     -4234.375
     -3299.511
  21956287.16309  21956290.43309  -6682783.87809  -5068343.97009     -3455.064
     -2692.255
  23138651.39307  23138655.64807  -7620459.19307  -5771695.90307      2582.536
      2012.359
 02  5 24  0 32  0.0000000  0  9G05G07G09G14G18G21G26G29G30
  21150535.53609  21150539.20509 -16229025.71309 -12477555.22609      1285.998
      1002.076
  23199465.09107  23199469.88507   -895955.94207   -579889.07307     -2759.727
     -2150.438
  20217406.41009  20217409.48109 -17827773.48709 -13728712.18209      -743.202
      -579.119
  24491949.16005  24491950.94205  -3820317.38105  -2818238.62805      2622.019
      2043.139
  24490870.17605  24490876.14305   4613220.96305   1092743.32805     -3384.205
     -2637.046
  24158359.38206  24158364.08305  -2231405.79605    354698.78605     -1778.082
     -1385.518
  23926655.24707  23926660.28706   7878321.78006  12048188.89106     -4239.020
     -3303.132
  21976047.82809  21976052.11809  -6578941.16909  -4987427.61109     -3467.653
     -2702.064
  23123927.43607  23123932.06607  -7697834.93607  -5831988.62407      2575.963
      2007.239
 02  5 24  0 32 30.0000000  0  9G05G07G09G14G18G21G26G29G30
  21143229.34909  21143232.84209 -16267420.02809 -12507472.85209      1273.807
       992.576
  23215258.05007  23215262.12907   -812962.45407   -515218.82407     -2772.982
     -2160.767
  20221690.56909  20221693.65209 -17805259.68309 -13711168.96209      -757.527
      -590.281
  24477005.64005  24477008.10205  -3898848.04505  -2879431.37705      2613.547
      2036.529
  24510211.20405  24510216.83005   4714856.71905   1171939.92005     -3391.310
     -2642.587
  24168555.84706  24168561.81305  -2177820.16205    396453.79505     -1794.092
     -1397.986
  23950868.41007  23950874.01306   8005564.44306  12147338.93906     -4243.634
     -3306.731
  21995880.47309  21995884.40009  -6474720.66109  -4906216.87409     -3480.170
     -2711.818
  23109240.87907  23109246.62307  -7775011.22507  -5892125.88107      2569.316
      2002.063
 02  5 24  0 33  0.0000000  0  9G05G07G09G14G18G21G26G29G30
  21135991.44209  21135994.71309 -16305455.47709 -12537110.83509      1261.619
       983.079
  23231125.55207  23231129.31507   -729579.69507   -450245.24907     -2786.124
     -2171.003
  20226055.20209  20226058.36709 -17782323.58509 -13693296.68309      -771.817
      -601.416
  24462108.55805  24462109.16805  -3977131.47805  -2940431.39605      2605.048
      2029.898
  24529591.35405  24529597.05105   4816697.01505   1251295.90705     -3398.274
     -2647.980
  24178842.49905  24178848.22005  -2123762.64905    438576.50405     -1810.008
     -1410.393
  23975106.62506  23975111.97106   8132936.77406  12246590.03306     -4248.104
     -3310.210
  22015782.61709  22015786.00409  -6370132.79909  -4824719.87409     -3492.592
     -2721.499
  23094591.36907  23094596.18707  -7851995.05407  -5952113.20207      2562.674
      1996.891
 02  5 24  0 33 30.0000000  0  9G05G07G09G14G18G21G26G29G30
  21128823.27509  21128826.39309 -16343124.35609 -12566463.19309      1249.687
       973.780
  23247068.01407  23247070.94507   -645802.54607   -384964.33707     -2798.959
     -2181.008
  20230501.45209  20230504.64109 -17758957.77909 -13675089.55709      -785.855
      -612.356
  24447260.44905  24447262.71205  -4055157.94005  -3001231.23505      2596.744
      2023.434
  24549010.77805  24549018.53805   4918745.92305   1330814.37405     -3404.890
     -2653.169
  24189220.22106  24189225.36705  -2069227.70005    481071.21605     -1825.596
     -1422.528
  23999370.63606  23999376.12206   8260443.27006  12345945.66606     -4252.270
     -3313.454
  22035755.76909  22035759.75409  -6265172.57009  -4742932.70709     -3504.662
     -2730.902
  23079980.16408  23079984.81807  -7928778.09507  -6011944.05307      2556.250
      1991.877
 02  5 24  0 34  0.0000000  0  9G05G07G09G14G18G21G26G29G30
  21121724.36309  21121727.97409 -16380428.42409 -12595531.26909      1237.423
       964.224
  23263084.30807  23263087.29707   -561634.97607   -319379.20707     -2812.040
     -2191.202
  20235029.32209  20235032.42809 -17735164.06109 -13656549.00209      -800.211
      -623.541
  24432462.08805  24432464.32705  -4132926.89805  -3061830.42005      2588.013
      2016.635
  24568469.13305  24568475.76805   5020997.91105   1410491.21705     -3411.716
     -2658.459
  24199688.28105  24199691.83205  -2014219.34805    523934.85005     -1841.435
     -1434.884
  24023659.28907  24023664.58806   8388079.78006  12445402.58906     -4256.655
     -3316.865
  22055799.28809  22055803.34409  -6159844.74609  -4660859.12809     -3516.995
     -2740.513
  23065406.61808  23065411.09507  -8005361.62307  -6071619.42807      2549.509
      1986.630
 02  5 24  0 34 30.0000000  0  9G05G07G09G14G18G21G26G29G30
  21114695.08609  21114698.72009 -16417368.67809 -12624315.85409      1225.069
       954.599
  23279173.58707  23279177.93607   -477080.87807   -253492.90707     -2825.097
     -2201.375
  20239638.26309  20239641.13509 -17710943.75309 -13637676.03409      -814.660
      -634.800
  24417711.56105  24417716.23805  -4210437.39905  -3122228.21505      2579.155
      2009.736
  24587964.35905  24587966.80905   5123448.10305   1490322.40205     -3418.456
     -2663.723
  24210245.40306  24210248.46305  -1958741.34705    567164.36905     -1857.290
     -1447.239
  24047971.21006  24047975.23106   8515842.28406  12544957.70206     -4261.039
     -3320.288
  22075911.81009  22075915.83109  -6054153.04709  -4578502.00309     -3529.306
     -2750.111
  23050871.33607  23050875.21607  -8081746.12607  -6131139.74607      2542.616
      1981.257
 02  5 24  0 35  0.0000000  0  9G05G07G09G14G18G21G26G29G30
  21107736.22009  21107739.72509 -16453936.93409 -12652810.57709      1212.803
       945.040
  23295338.93807  23295342.67707   -392134.34407   -187300.80607     -2838.005
     -2211.431
  20244329.95109  20244332.76409 -17686288.64509 -13618464.26609      -829.023
      -645.993
  24403012.97905  24403018.84005  -4287679.05305  -3182416.39205      2570.266
      2002.804
  24607498.58105  24607502.77705   5226101.35805   1570311.87605     -3425.055
     -2668.874
  24220893.25905  24220899.33105  -1902788.47505    610763.99005     -1872.908
     -1459.398
  24072309.08406  24072313.73806   8643736.31306  12644615.31106     -4265.251
     -3323.568
  22096094.38109  22096098.31909  -5948092.24009  -4495857.24909     -3541.437
     -2759.559
  23036375.20908  23036379.32407  -8157922.75907  -6190498.06007      2535.809
      1975.954
 02  5 24  0 35 30.0000000  0  9G05G07G09G14G18G21G26G29G30
  21100847.72309  21100851.65009 -16490136.23709 -12681017.79409      1200.422
       935.393
  23311577.34007  23311580.63407   -306800.95907   -120807.25007     -2850.959
     -2221.528
  20249103.65909  20249106.71909 -17661201.93209 -13598916.17409      -843.488
      -657.263
  24388366.39805  24388367.09005  -4364652.72205  -3242395.91105      2561.229
      1995.760
  24627070.91605  24627076.00405   5328951.14005   1650454.34705     -3431.642
     -2674.006
  24231629.53506  24231635.25505  -1846365.86805    654729.62805     -1888.621
     -1471.658
  24096670.16006  24096675.86906   8771756.13706  12744370.94906     -4269.478
     -3326.860
  22116346.32809  22116350.16109  -5841667.95109  -4412929.25909     -3553.585
     -2769.027
  23021918.38608  23021922.33607  -8233893.92607  -6249696.29807      2528.873
      1970.551
 02  5 24  0 36  0.0000000  0  9G05G07G09G14G18G21G26G29G30
  21094028.74409  21094032.28409 -16525970.42409 -12708940.51309      1188.389
       926.017
  23327888.53207  23327893.17407   -221087.18807    -54017.30707     -2863.427
     -2231.242
  20253958.96809  20253962.05109 -17635687.83509 -13579035.06009      -857.585
      -668.247
  24373768.91006  24373770.10505  -4441360.05305  -3302167.89705      2552.448
      1988.925
  24646677.49805  24646682.11705   5431989.61705   1730744.01305     -3437.721
     -2678.734
  24242455.09806  24242459.59905  -1789479.84705    699056.34505     -1903.904
     -1483.565
  24121054.76006  24121059.43706   8899895.05406  12844219.33906     -4273.236
     -3329.791
  22136666.18009  22136670.88109  -5734887.11409  -4329723.45509     -3565.259
     -2778.123
  23007499.99808  23007504.38207  -8309662.98407  -6308737.05107      2522.281
      1965.416
 02  5 24  0 36 30.0000000  0  9G05G07G09G14G18G21G26G29G30
  21087279.78809  21087283.04709 -16561436.88909 -12736576.69709      1176.046
       916.397
  23344271.83707  23344276.72507   -134992.83007     13069.19907     -2876.191
     -2241.188
  20258895.90709  20258898.76809 -17609743.92909 -13558819.03209      -871.998
      -679.479
  24359223.72305  24359226.82905  -4517796.42005  -3361728.69805      2543.301
      1981.793
  24666321.38805  24666326.58105   5535216.00705   1811179.98105     -3444.021
     -2683.644
  24253368.43906  24253374.41705  -1732130.02905    743744.48005     -1919.398
     -1495.630
  24145461.09706  24145465.98606   9028152.97206  12944160.49506     -4277.264
     -3332.928
  22157053.69409  22157058.00809  -5627749.90009  -4246239.96609     -3577.202
     -2787.429
  22993120.63307  22993123.96207  -8385226.62907  -6367617.74207      2515.315
      1959.984
 02  5 24  0 37  0.0000000  0  9G05G07G09G14G18G21G26G29G30
  21080601.20209  21080604.76509 -16596532.76409 -12763924.10909      1163.813
       906.866
  23360727.31007  23360732.15107    -48517.72907     80452.38707     -2888.706
     -2250.938
  20263915.21609  20263918.18209 -17583367.42409 -13538265.91609      -886.295
      -690.620
  24344730.23205  24344733.65505  -4593956.75805  -3421074.35205      2534.197
      1974.707
  24686000.76005  24686003.15105   5638629.37105   1891761.77805     -3450.057
     -2688.399
  24264369.99206  24264374.73905  -1674317.02405    788793.54505     -1934.668
     -1507.538
  24169890.72006  24169895.63206   9156529.98806  13044194.45306     -4281.062
     -3335.882
  22177509.20509  22177512.94409  -5520256.04609  -4162478.55909     -3588.900
     -2796.545
  22978780.78008  22978783.57007  -8460581.60907  -6426335.80707      2508.465
      1954.645
 02  5 24  0 37 30.0000000  0  9G05G07G09G14G18G21G26G29G30
  21073991.25209  21073994.65109 -16631267.67609 -12790990.25109      1151.641
       897.381
  23377253.21707  23377256.79207     38326.00907    148122.84207     -2901.086
     -2260.589
  20269014.93509  20269017.99409 -17556568.34309 -13517383.51309      -900.516
      -701.701
  24330288.78705  24330290.73305  -4669848.42705  -3480210.75705      2525.045
      1967.570
  24705712.40705  24705718.46705   5742216.36805   1972478.80105     -3455.929
     -2692.916
  24275457.16005  24275462.13105  -1616052.58605    834194.37105     -1949.841
     -1519.363
  24194340.78306  24194346.80806   9285013.76006  13144311.59906     -4284.706
     -3338.724
  22198029.94409  22198033.78909  -5412418.40509  -4078449.26309     -3600.455
     -2805.549
  22964479.18807  22964483.26707  -8535736.68707  -6484898.12607      2501.678
      1949.356
 02  5 24  0 38  0.0000000  0  9G05G07G09G14G18G21G26G29G30
  21067450.00909  21067453.52609 -16665642.49609 -12817775.79809      1139.784
       888.143
  23393848.44007  23393852.15607    125535.12907    216078.00607     -2913.038
     -2269.902
  20274194.92709  20274198.08009 -17529347.51509 -13496172.47609      -914.431
      -712.543
  24315898.21605  24315901.00605  -4745470.22805  -3539136.82005      2516.166
      1960.650
  24725456.38205  24725461.12905   5845972.62405   2053327.66105     -3461.385
     -2697.167
  24286629.49205  24286636.90005  -1557339.58305    879944.69605     -1964.574
     -1530.835
  24218809.11606  24218813.80506   9413600.60506  13244509.06606     -4287.961
     -3341.259
  22218615.57609  22218619.63209  -5304240.38309  -3994154.73809     -3611.612
     -2814.241
  22950215.54208  22950218.69607  -8610692.23607  -6543304.95807      2495.156
      1944.276
 02  5 24  0 38 30.0000000  0  9G05G07G09G14G18G21G26G29G30
  21060978.63909  21060982.22609 -16699649.14009 -12844274.45609      1127.342
       878.447
  23410514.06307  23410518.76407    213115.06107    284322.11007     -2925.582
     -2279.677
  20279456.38909  20279459.44909 -17501697.16909 -13474626.75709      -928.911
      -723.827
  24301560.85605  24301564.52505  -4820811.84905  -3597844.54405      2506.635
      1953.222
  24745233.88305  24745239.82605   5949902.63205   2134312.00005     -3467.283
     -2701.776
  24297888.54606  24297892.93105  -1498172.58105    926048.75805     -1979.843
     -1542.738
  24243299.53706  24243304.15505   9542295.96505  13344791.07605     -4291.710
     -3344.182
  22239266.88609  22239271.39909  -5195716.93709  -3909591.06709     -3623.241
     -2823.303
  22935991.58707  22935996.40507  -8685439.67707  -6601549.65807      2488.035
      1938.725
 02  5 24  0 39  0.0000000  0  9G05G07G09G14G18G21G26G29G30
  21054577.12709  21054581.01809 -16733288.37509 -12870486.81709      1115.223
       869.004
  23427249.99007  23427254.47907    301062.43407    352852.51707     -2937.627
     -2289.059
  20284799.89109  20284802.72809 -17473618.30809 -13452747.12309      -943.068
      -734.858
  24287278.52406  24287280.86805  -4895872.11805  -3656333.04405      2497.345
      1945.976
  24765044.26105  24765047.30805   6054001.78505   2215428.15805     -3472.713
     -2706.010
  24309233.78206  24309238.75205  -1438555.08805    972503.95205     -1994.680
     -1554.289
  24267809.91206  24267816.47706   9671096.20306  13445154.78306     -4295.017
     -3346.765
  22259983.37109  22259986.86409  -5086851.79609  -3824761.13009     -3634.458
     -2832.043
  22921807.43108  22921812.09607  -8759979.26507  -6659632.37707      2481.203
      1933.403
 02  5 24  0 39 30.0000000  0  9G05G07G09G14G18G21G26G29G30
  21048246.08509  21048249.47209 -16766558.66709 -12896411.69509      1102.891
       859.394
  23444056.26207  23444060.09507    389376.25107    421668.45907     -2949.840
     -2298.579
  20290224.92509  20290227.71509 -17445109.82409 -13430532.72009      -957.410
      -746.034
  24273049.41806  24273050.70705  -4970647.10805  -3714599.28405      2487.754
      1938.511
  24784883.66605  24784892.44604   6158268.25504   2296674.68904     -3478.241
     -2710.287
  24320663.96406  24320669.21605  -1378487.92805   1019309.45905     -2009.686
     -1565.980
  24292338.71106  24292344.59606   9800000.16106  13545599.35006     -4298.467
     -3349.456
  22280764.73509  22280768.32209  -4977646.14209  -3739665.85209     -3645.797
     -2840.881
  22907662.49708  22907666.57607  -8834308.70807  -6717551.32007      2474.154
      1927.909
 02  5 24  0 40  0.0000000  0  9G05G07G09G14G18G21G26G29G30
  21041986.22009  21041990.01809 -16799454.38009 -12922044.69709      1090.207
       849.512
  23460931.72307  23460936.23606    478059.89406    490772.60406     -2962.318
     -2308.296
  20295732.43309  20295735.34009 -17416166.12509 -13407979.18909      -972.114
      -757.490
  24258875.25805  24258878.48105  -5045128.94305  -3772637.08205      2477.747
      1930.713
  24804757.78205  24804761.02905   6262704.15005   2378053.07105     -3484.036
     -2714.827
  24332180.96606  24332187.39005  -1317967.87105   1066467.85905     -2024.919
     -1577.857
  24316889.08306  24316893.33806   9929010.96406  13646127.12606     -4302.187
     -3352.347
  22301610.94709  22301615.24909  -4868097.12909  -3654303.02909     -3657.372
     -2849.899
  22893559.67408  22893563.16707  -8908421.60007  -6775301.54207      2466.756
      1922.145
 02  5 24  0 40 30.0000000  0  9G05G07G09G14G18G21G26G29G30
  21035797.60209  21035801.64609 -16831974.94009 -12947385.36309      1077.865
       839.894
  23477877.42206  23477881.68906    567111.14506    560163.17906     -2974.373
     -2317.691
  20301323.21209  20301325.94309 -17386786.81509 -13385086.21409      -986.468
      -768.676
  24244757.98006  24244760.98105  -5119314.98605  -3830444.33805      2468.013
      1923.127
  24824662.98905  24824669.29505   6367306.33505   2459561.19805     -3489.364
     -2718.968
  24343782.78006  24343786.96505  -1256997.51405   1113977.18205     -2039.738
     -1589.398
  24341459.49106  24341466.31306  10058126.30106  13746736.43006     -4305.446
     -3354.887
  22322522.48509  22322526.36509  -4758207.11509  -3568674.47809     -3668.564
     -2858.619
  22879497.52408  22879501.90807  -8982317.04907  -6832882.33207      2459.643
      1916.604
 02  5 24  0 41  0.0000000  0  9G05G07G09G14G18G21G26G29G30
  21029679.69609  21029683.36509 -16864124.23109 -12972436.74309      1065.550
       830.297
  23494892.81907  23494896.59307    656523.73707    629835.32107     -2986.330
     -2327.018
  20306996.04809  20306998.69809 -17356976.09109 -13361857.08809     -1000.784
      -779.831
  24230697.11606  24230699.02706  -5193206.71506  -3888022.31806      2458.229
      1915.502
  24844599.48305  24844604.46505   6472067.24305   2541192.88005     -3494.547
     -2723.010
  24355470.24606  24355476.57605  -1195582.74705   1161832.79405     -2054.420
     -1600.847
  24366047.81906  24366054.13705  10187339.66405  13847422.08205     -4308.624
     -3357.375
  22343497.46709  22343501.62809  -4647982.86909  -3482785.51109     -3679.564
     -2867.192
  22865476.55008  22865480.48807  -9055998.33107  -6890296.25407      2452.548
      1911.073
 02  5 24  0 41 30.0000000  0  9G05G07G09G14G18G21G26G29G30
  21023632.70009  21023636.45109 -16895902.87109 -12997199.30009      1053.089
       820.588
  23511975.24407  23511978.71407    746294.33507    699786.45607     -2998.298
     -2336.332
  20312750.85109  20312753.77009 -17326734.57509 -13338292.27109     -1015.249
      -791.104
  24216692.06305  24216694.24305  -5266802.57605  -3945369.74705      2448.244
      1907.721
  24864562.66105  24864569.44804   6576982.70104   2622945.17404     -3499.750
     -2727.104
  24367240.61706  24367244.87205  -1133727.64005   1210031.51705     -2069.172
     -1612.337
  24390654.36306  24390659.57905  10316647.61905  13948181.40205     -4311.837
     -3359.880
  22364535.32209  22364539.14309  -4537427.92609  -3396638.84609     -3690.662
     -2875.839
  22851495.72308  22851499.73207  -9129465.16907  -6947543.04407      2445.302
      1905.428
 02  5 24  0 42  0.0000000  0  9G05G07G09G14G18G21G26G29G30
  21017656.51209  21017660.29909 -16927307.37909 -13021670.32109      1040.553
       810.819
  23529126.10007  23529130.63607    836424.09307    770017.43907     -3010.302
     -2345.688
  20318588.19709  20318591.39709 -17296058.99409 -13314389.21809     -1029.779
      -802.424
  24202745.44005          .00001  -5340097.05401          .00011      2438.074
          .000
  24884558.08405  24884566.47705   6682052.89205   2704817.88605     -3504.896
     -2731.086
  24379095.97805  24379100.36205  -1071430.45905   1258574.75805     -2083.947
     -1623.844
  24415279.36406  24415284.87405  10446051.14805  14049015.22905     -4315.036
     -3362.359
  22385636.15209  22385640.64209  -4426541.53009  -3310233.89609     -3701.725
     -2884.457
  22837557.18908  22837560.47107  -9202713.74907  -7004619.79307      2437.955
      1899.706
 02  5 24  0 42 30.0000000  0  9G05G07G09G14G18G21G26G29G30
  21011752.15809  21011755.81509 -16958335.33609 -13045847.92909      1028.207
       801.199
  23546345.34707  23546349.74306    926912.97406    840528.23106     -3022.027
     -2354.835
  20324508.54109  20324511.71809 -17264947.21209 -13290146.27209     -1044.110
      -813.593
  24188856.36606          .00001  -5413085.32201          .00011      2428.006
          .000
  24904582.39605  24904587.34305   6787276.30705   2786810.01405     -3509.744
     -2734.877
  24391034.22005  24391038.92105  -1008691.87205   1307461.89405     -2098.387
     -1635.103
  24439921.75906  24439927.78405  10575549.96405  14149923.33105     -4317.976
     -3364.654
  22406800.67609  22406804.13409  -4315324.15109  -3223571.04809     -3712.508
     -2892.864
  22823660.57508  22823664.11507  -9275740.76807  -7061523.86607      2430.764
      1894.102
 02  5 24  0 43  0.0000000  0  9G05G07G09G14G18G21G26G29G30
  21005917.45809  21005920.97509 -16988996.95609 -13069740.07009      1015.792
       791.526
  23563631.15307  23563634.82207   1017748.15707    911308.89907     -3033.731
     -2363.942
  20330509.96709  20330512.89809 -17233409.41909 -13265571.36709     -1058.510
      -824.814
  24175023.41406  24175028.52505  -5485775.18005     -9422.70205      2417.820
      1884.033
  24924631.38005  24924638.60104   6892639.49604   2868911.20004     -3514.534
     -2738.564
  24403054.45705  24403059.00505   -945524.51005   1356683.12205     -2112.859
     -1646.372
  24464580.69706  24464587.85906  10705131.30606  14250895.70206     -4320.869
     -3366.914
  22428025.03309  22428029.07708  -4203788.96108  -3136660.54108     -3723.277
     -2901.254
  22809804.18308  22809807.86407  -9348555.85707  -7118262.83507      2423.484
      1888.424
 02  5 24  0 43 30.0000000  0  9G05G07G09G14G18G21G26G29G30
  21000153.69209  21000157.02109 -17019285.01009 -13093341.13909      1003.531
       781.971
  23580983.22907  23580987.40207   1108934.50707    982363.19307     -3045.203
     -2372.886
  20336593.78009  20336596.67509 -17201438.70309 -13240659.12309     -1072.744
      -835.905
  24161249.30106  24161252.22005  -5558157.06505    -65824.14705      2407.741
      1876.161
  24944708.59305  24944715.89605   6998146.48505   2951124.22205     -3519.086
     -2742.139
  24415157.60406  24415162.69105   -881923.62205   1406242.15005     -2127.062
     -1657.449
  24489255.88906  24489261.72705  10834799.67105  14351935.86005     -4323.542
     -3368.994
  22449311.06209  22449315.31709  -4091931.28309  -3049498.78109     -3733.771
     -2909.430
  22795989.81909  22795992.93807  -9421151.19807  -7174830.56407      2416.330
      1882.851
 02  5 24  0 44  0.0000000  0  9G05G07G09G14G18G21G26G29G30
  20994460.20709  20994463.34909 -17049205.09309 -13116655.47509       991.171
       772.340
  23598400.29707  23598404.83307   1200463.59407   1053684.54207     -3056.679
     -2381.822
  20342758.92809  20342761.98709 -17169041.24209 -13215414.34909     -1087.054
      -847.055
  24147533.23606  24147535.11105  -5630234.87205   -121988.63505      2397.472
      1868.160
  24964812.53905  24964816.58305   7103787.62805   3033441.86805     -3523.593
     -2745.642
  24427341.45005  24427345.40005   -817898.02905   1456132.20505     -2141.258
     -1668.515
  24513945.88806  24513951.32705  10964546.74705  14453037.39605     -4326.205
     -3371.070
  22470656.45309  22470661.08308  -3979759.78908  -2962092.47608     -3744.263
     -2917.609
  22782216.47809  22782219.44407  -9493531.69207  -7231230.89107      2409.069
      1877.196
 02  5 24  0 44 30.0000000  0  9G05G07G09G14G18G21G26G29G30
  20988837.94809  20988841.51209 -17078748.90509 -13139676.60209       978.429
       762.412
  23615884.34807  23615888.83706   1292341.24506   1125277.51506     -3068.463
     -2391.015
  20349006.60009  20349009.55409 -17136209.02009 -13189830.79609     -1101.743
      -858.501
  24133877.39206  24133880.88506  -5701997.81706   -177907.83406      2386.727
      1859.785
  24984940.68204  24984947.71605   7209567.58905   3115867.72805     -3528.377
     -2749.399
  24439606.65905  24439612.95305   -753441.76205   1506357.75305     -2155.811
     -1679.847
  24538651.88006  24538657.24905  11094378.02305  14554204.54505     -4329.192
     -3373.396
  22492062.66009  22492066.72808  -3867269.36108  -2874437.64308     -3755.052
     -2926.013
  22768485.25109  22768489.30708  -9565688.65208  -7287457.01208      2401.390
      1871.208
 02  5 24  0 45  0.0000000  0  9G05G07G09G14G18G21G26G29G30
  20983287.42809  20983290.92209 -17107918.69909 -13162406.29109       965.947
       752.686
  23633433.20807  23633437.40506   1384562.87306   1197138.52206     -3079.914
     -2399.934
  20355336.80209  20355339.82609 -17102944.22109 -13163910.17609     -1116.178
      -869.749
  24120280.93306  24120283.87506  -5773445.81206   -233581.57206      2376.176
      1851.568
  25005095.71205  25005101.55004   7315480.73104   3198397.30504     -3532.762
     -2752.762
  24451954.24606  24451959.08805   -688559.69105   1556915.17505     -2169.937
     -1690.851
  24563372.52305  24563377.90305  11224288.81405  14655433.57105     -4331.793
     -3375.420
  22513528.59409  22513532.46208  -3754464.65408  -2786537.91508     -3765.494
     -2934.148
  22754796.57409  22754800.48908  -9637623.33108  -7343509.93708      2393.980
      1865.435
 02  5 24  0 45 30.0000000  0  9G05G07G09G14G18G21G26G29G30
  20977808.46309  20977812.10809 -17136709.37409 -13184840.56709       953.372
       742.886
  23651048.71407  23651052.82907   1477131.12507   1269269.62807     -3091.357
     -2408.855
  20361749.96009  20361753.23009 -17069241.73909 -13137648.50409     -1130.704
      -881.068
  24106746.82106  24106750.45506  -5844571.55706   -289004.23306      2365.487
      1843.235
  25025276.79205  25025282.38305   7421528.82805   3281032.05905     -3537.135
     -2756.196
  24464381.97706  24464388.11905   -623249.62905   1607806.03805     -2184.118
     -1701.897
  24588109.67905  24588114.15705  11354281.77205  14756726.73205     -4334.451
     -3377.482
  22535054.76709  22535059.25708  -3641343.61208  -2698391.69208     -3775.923
     -2942.276
  22741150.82608  22741155.16408  -9709330.18008  -7399385.33508      2386.426
      1859.550
 02  5 24  0 46  0.0000000  0  9G05G07G09G14G18G21G26G29G30
  20972401.86709  20972405.78209 -17165121.45709 -13206979.82509       940.666
       732.985
  23668729.38107  23668732.64007   1570042.95107   1341668.44407     -3102.850
     -2417.806
  20368246.61009  20368250.02109 -17035102.31909 -13111046.35909     -1145.350
      -892.480
  24093273.27406  24093275.14906  -5915373.03406   -344174.19406      2354.529
      1834.695
  25045481.37605  25045483.13405   7527707.83505   3363768.77105     -3541.546
     -2759.646
  24476890.44105  24476894.15705   -557514.19905   1659028.40705     -2198.303
     -1712.972
  24612861.95505  24612865.34305  11484353.67005  14858081.33705     -4337.128
     -3379.570
  22556640.61609  22556645.22308  -3527909.37208  -2610001.42108     -3786.420
     -2950.453
  22727549.11709  22727553.41908  -9780808.95508  -7455083.00708      2378.708
      1853.533
 02  5 24  0 46 30.0000000  0  9G05G07G09G14G18G21G26G29G30
  20967066.54309  20967069.98909 -17193159.44709 -13228827.59309       928.361
       723.398
  23686473.86507  23686478.30807   1663291.40807   1414329.58507     -3113.873
     -2426.392
  20374825.18909  20374828.51809 -17000530.76109 -13084107.48809     -1159.589
      -903.575
  24079861.77806  24079863.72406  -5985852.34606   -399093.12306      2343.913
      1826.423
  25065709.85605  25065716.33805   7634010.15805   3446601.56005     -3545.438
     -2762.678
  24489479.67806  24489484.35605   -491361.46205   1710575.86905     -2212.038
     -1723.656
  24637628.03006  24637632.89505  11614497.54605  14959492.01905     -4339.286
     -3381.250
  22578284.63809  22578288.52908  -3414169.32708  -2521372.86708     -3796.420
     -2958.248
  22713989.69709  22713993.64708  -9852063.24608  -7510605.74308      2371.402
      1847.848
 02  5 24  0 47  0.0000000  0  9G05G07G09G14G18G21G26G29G30
  20961802.60209  20961805.95509 -17220821.03509 -13250382.05409       916.012
       713.775
  23704282.45606  23704286.54707   1756876.29507   1487252.85407     -3124.823
     -2434.928
  20381486.69709  20381489.80409 -16965525.10909 -13056830.35709     -1173.849
      -914.687
  24066512.26606  24066515.50106  -6056005.22506   -453757.70906      2333.192
      1818.064
  25085962.22305  25085968.68105   7740434.42405   3529529.42805     -3549.224
     -2765.620
  24502146.62705  24502149.96805   -424791.46305   1762448.55505     -2225.638
     -1734.262
  24662407.10005  24662413.11305  11744712.94905  15060958.44905     -4341.441
     -3382.944
  22599986.56408  22599991.00608  -3300124.12308  -2432506.51808     -3806.332
     -2965.969
  22700473.66709  22700478.02708  -9923090.35208  -7565951.47108      2364.018
      1842.094
 02  5 24  0 47 30.0000000  0  9G04G05G07G09G14G21G26G29G30
  24907358.60605          .00001    -37480.69901          .00011      1700.006
          .000
  20956610.11609  20956613.50409 -17248107.59009 -13271644.28409       903.210
       703.800
  23722154.18706  23722158.82906   1850793.50006   1560435.06906     -3136.182
     -2443.778
  20388230.38809  20388233.58809 -16930087.07309 -13029216.30309     -1188.565
      -926.154
  24053225.00406  24053226.09406  -6125830.89806   -508167.29206      2321.951
      1809.318
  24514893.55905  24514900.13505   -357808.26005   1814643.18105     -2239.712
     -1745.239
  24687198.74905  24687204.64605  11874995.63305  15162477.30805     -4343.948
     -3384.890
  22621746.33809  22621750.30008  -3185778.26508  -2343405.89208     -3816.601
     -2973.973
  22687000.49809  22687004.46008  -9993891.08508  -7621120.79908      2356.141
      1835.953
 02  5 24  0 48  0.0000000  0  9G04G05G07G09G14G21G26G29G30
  24897680.53705          .00001    -88339.16601          .00011      1690.230
          .000
  20951488.41009  20951491.71609 -17275022.66009 -13292617.04909       890.832
       694.154
  23740088.22806  23740092.49406   1945037.25706   1633871.76006     -3147.049
     -2452.247
  20395055.64409  20395058.97309 -16894220.11809 -13001268.03109     -1202.859
      -937.293
  24039998.79706  24040001.72706  -6195330.24306   -562322.66106      2311.014
      1800.787
  24527718.12405  24527723.31705   -290417.81205   1867155.13305     -2253.257
     -1755.779
  24712002.47605  24712008.16105  12005339.87305  15264044.13105     -4345.967
     -3386.463
  22643561.75508  22643565.76408  -3071137.89708  -2254075.78308     -3826.370
     -2981.587
  22673570.08209  22673574.20808 -10064468.19208  -7676115.88908      2348.674
      1830.131
 02  5 24  0 48 30.0000000  0  9G04G05G07G09G14G21G26G29G30
  24888060.43605  24888063.96405   -138896.94605    -11793.59405      1680.178
      1309.207
  20946438.14809  20946441.28909 -17301561.93409 -13313296.98209       878.324
       684.408
  23758084.22306  23758088.67806   2039609.37006   1707564.32706     -3157.913
     -2460.710
  20401963.35109  20401966.80909 -16857920.21709 -12972982.39109     -1217.259
      -948.514
  24026837.26506  24026839.49206  -6264496.52406   -616218.43706      2299.932
      1792.150
  24540620.50206  24540626.33905   -222618.68305   1919985.58705     -2266.808
     -1766.345
  24736818.85706  24736823.93305  12135747.27205  15365660.19605     -4347.976
     -3388.039
  22665433.60009  22665437.46808  -2956201.49208  -2164515.00708     -3836.158
     -2989.214
  22660183.39109  22660186.66108 -10134816.58408  -7730932.75308      2341.068
      1824.206
 02  5 24  0 49  0.0000000  0  9G04G05G07G09G14G21G26G29G30
  24878497.44405  24878501.99205   -189150.55805    -50952.15305      1670.070
      1301.344
  20941459.65609  20941462.78609 -17327724.22209 -13333683.16009       865.849
       674.688
  23776143.26106  23776147.55106   2134508.32006   1781511.53806     -3168.643
     -2469.077
  20408953.50709  20408956.75409 -16821186.48109 -12944358.70409     -1231.622
      -959.705
  24013739.59406  24013742.31306  -6333326.62706   -669852.25906      2288.774
      1783.451
  24553599.37605  24553604.47505   -154411.99005   1973133.56605     -2280.259
     -1776.827
  24761646.05105  24761653.41205  12266216.54605  15467324.40605     -4349.912
     -3389.531
  22687360.85208  22687364.94308  -2840971.00108  -2074725.06108     -3845.840
     -2996.757
  22646840.12509  22646843.32508 -10204934.59708  -7785570.09908      2333.478
      1818.293
 02  5 24  0 49 30.0000000  0  9G04G05G07G09G14G21G26G29G30
  24868994.73005  24868999.45405   -239085.46905    -89862.39105      1658.998
      1292.709
  20936555.22109  20936558.67909 -17353497.86509 -13353766.49809       852.487
       664.275
  23794265.94107  23794270.22006   2229743.47006   1855720.72406     -3180.251
     -2478.116
  20416028.52509  20416031.47909 -16784007.57909 -12915388.13309     -1246.880
      -971.595
  24000708.08406  24000709.80706  -6401806.43106   -723213.13106      2276.650
      1774.004
  24566657.67505  24566662.02405    -85789.41605   2026605.62205     -2294.472
     -1787.908
  24786487.05305  24786492.78505  12396756.60005  15569043.80705     -4352.663
     -3391.689
  22709346.40008  22709350.74908  -2725437.29408  -1984698.84308     -3856.305
     -3004.909
  22633543.64609  22633547.40908 -10274809.82608  -7840018.25608      2324.961
      1811.655
 02  5 24  0 50  0.0000000  0  9G04G05G07G09G14G21G26G29G30
  24859551.63305  24859558.83105   -288707.24505   -128528.59405      1649.074
      1284.983
  20931722.81109  20931726.14009 -17378890.99909 -13373553.34009       840.370
       654.834
  23812450.75607  23812455.64406   2325303.98606   1930183.46306     -3190.483
     -2486.098
  20423186.53909  20423189.56309 -16746391.85509 -12886077.18509     -1260.866
      -982.493
  23987742.46607  23987743.87306  -6469942.07706   -776305.84706      2265.700
      1765.477
  24579792.94005  24579799.72805    -16762.06805   2080393.08005     -2307.388
     -1797.957
  24811339.27805  24811344.02605  12527356.75805  15670810.11905     -4354.011
     -3392.732
  22731387.06808  22731391.59208  -2609611.74908  -1894445.22408     -3865.428
     -3012.015
  22620291.29809  22620294.51008 -10344449.80108  -7894283.11108      2317.690
      1805.989
 02  5 24  0 50 30.0000000  0  9G04G05G07G09G14G21G26G29G30
  24850167.77905  24850173.42905   -338019.46005   -166953.63105      1638.993
      1277.111
  20926961.98909  20926965.36509 -17403910.07609 -13393048.70109       828.157
       645.317
  23830695.84206  23830699.19406   2421181.08106   2004892.90006     -3200.718
     -2494.063
  20430426.39609  20430429.51409 -16708345.93909 -12856431.01309     -1274.936
      -993.457
  23974841.23806  23974841.96506  -6537737.43006   -829133.37806      2254.574
      1756.807
  24593004.28505  24593009.75905     52660.93505   2134488.78105     -2320.250
     -1807.991
  24836201.13705  24836207.76005  12658008.20205  15772616.28505     -4355.455
     -3393.853
  22753482.04108  22753485.73308  -2493503.42508  -1803971.25308     -3874.534
     -3019.117
  22607083.20809  22607086.67708 -10413860.31008  -7948369.16908      2310.298
      1800.232
 02  5 24  0 51  0.0000000  0  9G04G05G07G09G14G21G26G29G30
  24840842.89705  24840848.10105   -387024.29605   -205139.06405      1628.050
      1268.595
  20922271.04309  20922274.34909 -17428559.85709 -13412256.30809       815.221
       635.236
  23848999.18906  23849002.58906   2517367.54006   2079843.38206     -3211.647
     -2502.583
  20437747.16909  20437750.24009 -16669874.75709 -12826453.47209     -1289.751
     -1005.001
  23962004.34506  23962008.08506  -6605194.83306   -881697.57306      2242.631
      1747.502
  24606288.66505  24606293.49505    122472.19905   2188887.11505     -2333.767
     -1818.516
  24861072.65706  24861077.10005  12788703.50705  15874456.64405     -4357.500
     -3395.441
  22775629.14308  22775634.11308  -2377119.82708  -1713282.79308     -3884.318
     -3026.740
  22593917.60809  22593921.37108 -10483045.22808  -8002279.43608      2302.111
      1793.852
 02  5 24  0 51 30.0000000  0  9G04G05G07G09G14G21G26G29G30
  24831577.87405  24831581.26205   -435709.28205   -243075.39405      1617.435
      1260.318
  20917652.62109  20917656.12609 -17452830.66009 -13431168.60309       802.660
       625.448
  23867362.80206  23867367.12806   2613870.62906   2155040.55206     -3222.067
     -2510.701
  20445150.73309  20445153.60509 -16630968.64909 -12796137.02909     -1304.168
     -1016.235
  23949234.73307  23949236.55006  -6672302.41706   -933989.21406      2231.001
      1738.442
  24619648.12905  24619652.36105    192678.99205   2243593.64805     -2346.844
     -1828.697
  24885951.86605  24885957.24605  12919449.86105  15976336.88905     -4359.076
     -3396.680
  22797829.76908  22797834.38808  -2260454.26708  -1622374.61308     -3893.571
     -3033.952
  22580796.77609  22580800.70208 -10551994.27608  -8056005.91008      2294.299
      1787.765
 02  5 24  0 52  0.0010000  0  9G04G05G07G09G14G21G26G29G30
  24822375.46005  24822378.03905   -484072.01005   -280760.55705      1606.698
      1251.961
  20913106.09509  20913109.58809 -17476721.97909 -13449785.18709       790.097
       615.658
  23885787.87806  23885792.75406   2710692.55706   2230486.21306     -3232.454
     -2518.796
  20452637.57209  20452640.49109 -16591625.36209 -12765479.92609     -1318.570
     -1027.456
  23936531.52606  23936534.23406  -6739058.35506   -986006.81806      2219.293
      1729.313
  24633084.62906  24633089.43505    263282.20305   2298609.02905     -2359.782
     -1838.789
  24910844.58505  24910851.25505  13050250.72105  16078259.47405     -4360.604
     -3397.864
  22820084.93408  22820089.49407  -2143504.35207  -1531244.86607     -3902.755
     -3041.105
  22567720.71609  22567725.08808 -10620707.61708  -8109548.68208      2286.477
      1781.669
 02  5 24  0 52 30.0010000  0  9G04G05G07G09G14G21G26G29G30
  24813232.46405  24813237.27005   -532115.14505   -318196.65305      1595.819
      1243.491
  20908630.54209  20908633.94209 -17500240.75209 -13468111.49009       777.473
       605.823
  23904269.46206  23904273.63506   2807815.62006   2306166.50206     -3242.787
     -2526.852
  20460205.39109  20460208.29809 -16551856.46609 -12734491.18009     -1333.029
     -1038.724
  23923894.53106  23923897.43806  -6805464.96606  -1037752.18906      2207.445
      1720.083
  24646591.92806  24646596.54705    334265.73005   2353920.78205     -2372.749
     -1848.880
  24935741.83005  24935747.73805  13181085.86705  16180208.79805     -4362.057
     -3398.996
  22842390.06307  22842394.98607  -2026289.08907  -1439908.34307     -3911.922
     -3048.247
  22554689.54709  22554693.35709 -10689188.51209  -8162910.36009      2278.556
      1775.494
 02  5 24  0 53  0.0010000  0  9G04G05G07G09G14G21G26G29G30
  24804153.03505  24804157.15005   -579828.45605   -355375.78805      1585.118
      1235.148
  20904227.57609  20904231.13909 -17523378.73409 -13486141.06409       765.122
       596.200
  23922811.30206  23922815.49906   2905249.78106   2382089.20406     -3252.780
     -2534.635
  20467855.91609  20467858.85909 -16511651.91509 -12703162.96009     -1347.214
     -1049.778
  23911326.32207  23911329.53406  -6871512.79306  -1089218.03106      2195.796
      1711.007
  24660173.36206  24660179.07105    405638.06805   2409535.56305     -2385.327
     -1858.701
  24960646.13505  24960650.57805  13311966.37405  16282193.49605     -4363.206
     -3399.911
  22864747.90008  22864751.83907  -1908798.67607  -1348357.43507     -3920.711
     -3055.099
  22541703.60909  22541706.96209 -10757429.66509  -8216085.22309      2270.901
      1769.532
 02  5 24  0 53 30.0010000  0  9G04G05G07G09G14G21G26G29G30
  24795136.57605  24795143.94905   -627211.51005   -392297.63205      1573.953
      1226.429
  20899896.54409  20899900.24809 -17546138.19209 -13503875.69209       752.392
       586.278
  23941409.69706  23941413.76506   3002990.34806   2458250.68906     -3263.053
     -2542.636
  20475589.08309  20475591.93109 -16471013.76809 -12671496.87109     -1361.776
     -1061.123
  23898825.75207  23898828.87006  -6937201.69406  -1140404.18106      2183.672
      1701.566
  24673828.77406  24673835.53705    477394.21705   2465449.33305     -2398.192
     -1868.733
  24985560.57105  24985563.43105  13442887.82405  16384210.03805     -4364.628
     -3401.016
  22887156.88908  22887161.13207  -1791037.92907  -1256595.88507     -3929.762
     -3062.148
  22528763.05109  22528766.61508 -10825432.45108  -8269074.33408      2262.829
      1763.242
 02  5 24  0 54  0.0010000  0  9G04G05G07G09G14G21G26G29G30
  24786183.08205  24786189.06005   -674260.96305   -428959.33805      1562.568
      1217.579
  20895637.83809  20895641.37809 -17568518.35609 -13521314.75909       739.523
       576.251
  23960067.63306  23960072.93106   3101035.66706   2534649.62206     -3273.390
     -2550.697
  20483404.79309  20483407.71209 -16429941.86809 -12639492.79609     -1376.446
     -1072.555
  23886394.52007  23886397.36806  -7002528.65706  -1191308.29806      2171.340
      1691.950
  24687555.43106  24687559.27605    549532.18405   2521660.63105     -2411.103
     -1878.780
  25010480.89206  25010484.47905  13573848.12805  16486256.98605     -4366.133
     -3402.172
  22909617.13907  22909621.59407  -1673009.07407  -1164625.38807     -3938.906
     -3069.276
  22515868.22509  22515871.36609 -10893195.40109  -8321876.56809      2254.596
      1756.825
 02  5 24  0 54 30.0010000  0  9G04G05G07G09G14G21G26G29G30
  24777293.80205  24777298.25605   -720972.94605   -465358.22905      1551.480
      1208.931
  20891451.35209  20891454.74009 -17590518.10209 -13538457.40209       727.065
       566.542
  23978783.01906  23978786.88706   3199384.32406   2611284.93806     -3283.247
     -2558.363
  20491303.27909  20491306.26809 -16388435.23909 -12607149.97309     -1390.723
     -1083.680
  23874033.47907  23874036.56206  -7067490.11206  -1241927.60506      2159.352
      1682.610
  24701355.27805  24701358.88805    622050.41605   2578168.30105     -2423.494
     -1888.434
  25035408.20705  25035415.95505  13704846.14005  16588333.23205     -4367.142
     -3402.973
  22932128.36407  22932132.44307  -1554713.84307  -1072447.35507     -3947.486
     -3075.960
  22503019.44109  22503022.45409 -10960716.60509  -8374490.44009      2246.759
      1750.721
 02  5 24  0 55  0.0010000  0  9G04G05G07G09G14G21G26G29G30
  24768469.08605  24768473.08305   -767346.87705   -501493.67405      1540.496
      1200.387
  20887336.93709  20887340.37109 -17612139.73809 -13555305.41309       714.770
       556.963
  23997554.58206  23997558.08706   3298031.48806   2688152.83506     -3292.828
     -2565.839
  20499283.99209  20499287.07509 -16346496.41609 -12574470.37209     -1404.805
     -1094.653
  23861740.78507  23861743.50506  -7132086.11506  -1292262.12406      2147.432
      1673.328
  24715226.64205  24715232.31605    694943.75605   2634968.22705     -2435.638
     -1897.904
  25060343.61005  25060351.07705  13835876.88705  16690434.94905     -4367.830
     -3403.491
  22954688.75207  22954693.79207  -1436157.42807   -980065.78607     -3955.865
     -3082.490
  22490215.92709  22490218.99809 -11027997.82109  -8426917.31109      2239.040
      1744.705
 02  5 24  0 55 30.0010000  0  9G04G05G07G09G14G21G26G29G30
  24759709.55005  24759714.14505   -813380.28905   -537363.79805      1528.613
      1191.131
  20883294.31209  20883297.82909 -17633383.12309 -13571858.67509       701.691
       546.771
  24016382.20306  24016386.63406   3396975.12406   2765251.76406     -3303.139
     -2573.870
  20507347.06809  20507350.18609 -16304125.32609 -12541453.94109     -1419.687
     -1106.249
  23849518.51007  23849521.25306  -7196314.19306  -1342309.97206      2134.669
      1663.375
  24729168.60005  24729174.96505    768209.19705   2692058.12205     -2448.487
     -1907.915
  25085285.13406  25085290.10405  13966938.23205  16792560.66405     -4369.314
     -3404.666
  22977298.13207  22977303.60607  -1317342.26407   -887482.61407     -3964.904
     -3089.535
  22477458.57509  22477462.29109 -11095038.10309  -8479156.42209      2230.540
      1738.081
 02  5 24  0 56  0.0010000  0  9G04G05G07G09G14G21G26G29G30
  24751014.95305  24751021.44705   -859067.31705   -572964.06505      1517.131
      1182.173
  20879324.40909  20879327.55109 -17654245.32509 -13588114.92109       689.081
       536.945
  24035267.72706  24035271.10306   3496215.70706   2842582.06306     -3312.926
     -2581.495
  20515492.63709  20515495.79009 -16261319.40809 -12508098.68009     -1434.078
     -1117.464
  23837367.62507  23837369.25406  -7260169.00206  -1392066.95606      2122.282
      1653.731
  24743181.55805  24743187.47705    841847.34105   2749438.40405     -2460.766
     -1917.471
  25110230.36805  25110236.80405  14098030.58305  16894710.37005     -4370.205
     -3405.349
  22999957.62207  22999962.03007  -1198268.44807   -794697.87907     -3973.375
     -3096.135
  22464747.64909  22464751.30709 -11161833.73709  -8531204.90809      2222.477
      1731.798
 02  5 24  0 56 30.0010000  0  9G04G05G07G09G14G21G26G29G30
  24742385.31205  24742390.48205   -904416.59705   -608301.06505      1505.825
      1173.386
  20875424.90609  20875428.11809 -17674737.39709 -13604082.75509       676.750
       527.337
  24054206.32006  24054209.98906   3595739.43606   2920133.03506     -3322.355
     -2588.849
  20523718.88409  20523722.13109 -16218090.27909 -12474413.64409     -1448.183
     -1128.455
  23825285.25607  23825287.20206  -7323659.35406  -1441539.97206      2110.083
      1644.221
  24757263.37206  24757268.78705    915843.82205   2807097.91405     -2472.629
     -1926.712
  25135179.53305  25135185.18305  14229140.48705  16996873.79005     -4370.767
     -3405.792
  23022662.98607  23022667.07707  -1078949.93107   -701722.47407     -3981.481
     -3102.453
  22452081.14909  22452084.54809 -11228395.25609  -8583070.97809      2214.634
      1725.687
 02  5 24  0 57  0.0010000  0  9G04G05G07G09G14G21G26G29G30
  24733822.29905  24733826.43705   -949415.41605   -643364.99305      1493.973
      1164.113
  20871597.76909  20871601.26209 -17694849.31109 -13619754.36009       663.922
       517.341
  24073200.83506  24073204.50406   3695554.13806   2997910.73906     -3332.117
     -2596.448
  20532027.44109  20532030.54709 -16174427.97009 -12440391.06909     -1462.767
     -1139.819
  23813275.40707  23813278.20806  -7386772.74806  -1490719.21006      2097.319
      1634.273
  24771414.06706  24771417.71305    990206.01805   2865042.35905     -2484.955
     -1936.326
  25160133.83605  25160136.88305  14360275.46105  17099056.83905     -4371.666
     -3406.495
  23045416.45007  23045420.48207   -959379.26207   -608550.58807     -3989.981
     -3109.079
  22439461.42509  22439464.97609 -11294711.63909  -8634746.00409      2206.312
      1719.200
 02  5 24  0 57 30.0010000  0  9G04G05G07G09G14G21G26G29G30
  24725327.67505  24725332.29405   -994055.85105   -678149.66105      1482.299
      1155.034
  20867843.86809  20867847.08009 -17714576.19809 -13635125.94709       651.444
       507.617
  24092250.19106  24092254.27106   3795662.38806   3075917.12206     -3341.501
     -2603.763
  20540419.62609  20540422.45109 -16130327.68709 -12406027.21809     -1477.004
     -1150.912
  23801338.42307  23801339.32606  -7449501.96806  -1539599.13806      2084.839
      1624.556
  24785634.50905  24785640.82705   1064935.86705   2923273.27905     -2496.799
     -1945.548
  25185092.16405  25185099.06905  14491438.07105  17201261.34305     -4372.256
     -3406.950
  23068218.77307  23068223.19307   -839554.74007   -515180.90707     -3998.046
     -3115.359
  22426889.91709  22426893.52709 -11360777.45909  -8686225.80109      2198.304
      1712.959
 02  5 24  0 58  0.0010000  0  9G04G05G07G09G14G21G26G29G30
  24716900.44605  24716906.00205  -1038343.72805   -712659.61305      1470.169
      1145.580
  20864161.55009  20864164.86709 -17733926.53809 -13650204.11909       638.561
       497.581
  24111354.63406  24111357.61206   3896053.32206   3154143.83106     -3351.219
     -2611.337
  20548893.23409  20548896.16509 -16085798.23309 -12371328.94609     -1491.642
     -1162.318
  23789473.22107  23789476.11606  -7511852.89906  -1588184.26606      2071.867
      1614.433
  24799922.82905  24799930.15605   1140022.49705   2981782.26005     -2508.969
     -1955.039
  25210056.54106  25210062.19105  14622617.45005  17303478.85205     -4373.071
     -3407.583
  23091066.95007  23091070.81807   -719487.34407   -421621.93407     -4006.452
     -3121.908
  22414363.95209  22414367.31609 -11426600.14909  -8737516.15809      2189.852
      1706.378
 02  5 24  0 58 30.0010000  0  9G04G05G07G09G14G21G26G29G30
  24708541.04805  24708545.54905  -1082272.03505   -746889.41605      1458.159
      1136.235
  20860551.76809  20860555.24909 -17752895.87809 -13664985.40709       625.871
       487.691
  24130512.71906  24130514.81706   3996728.86706   3232592.29006     -3360.646
     -2618.691
  20557449.56209  20557453.07909 -16040835.38809 -12336292.96809     -1506.070
     -1173.561
  23777681.49807  23777683.22106  -7573818.91406  -1636469.45706      2058.998
      1604.408
  24814279.99705  24814285.82305   1215467.68105   3040570.62105     -2520.868
     -1964.306
  25235022.04905  25235029.76205  14753815.62905  17405711.11505     -4373.649
     -3408.032
  23113960.74007  23113965.75707   -599175.40707   -327872.44807     -4014.540
     -3128.208
  22401885.69609  22401888.69709 -11492174.67709  -8788613.14509      2181.600
      1699.945
 02  5 24  0 59  0.0010000  0  9G04G05G07G09G14G21G26G29G30
  24700251.53905  24700256.81405  -1125834.55105   -780834.12005      1446.078
      1126.805
  20857015.09309  20857018.83209 -17771480.61909 -13679467.00809       613.196
       477.814
  24149724.81206  24149730.08706   4097690.32306   3311263.56406     -3370.014
     -2625.982
  20566088.66409  20566092.12209 -15995435.81509 -12300916.67409     -1520.479
     -1184.789
  23765964.03107  23765965.73006  -7635393.91906  -1684449.96906      2046.075
      1594.343
  24828705.33105  24828710.78205   1291271.98605   3099638.80105     -2532.634
     -1973.470
  25259991.77705  25259996.81805  14885033.88305  17507959.02905     -4374.125
     -3408.404
  23136902.82207  23136908.42607   -478618.22307   -233931.85307     -4022.511
     -3134.419
  22389455.54709  22389458.66509 -11557496.66209  -8839513.33209      2173.302
      1693.478
 02  5 24  0 59 30.0010000  0  9G04G05G07G09G14G21G26G29G30
  24692031.69305  24692034.94005  -1169030.15005   -814493.03905      1433.949
      1117.371
  20853551.42909  20853554.78209 -17789682.29609 -13693650.11209       600.596
       467.998
  24168990.55406  24168995.29006   4198933.56506   3390154.36906     -3379.191
     -2633.139
  20574810.55409  20574813.46109 -15949601.57309 -12265201.68409     -1534.798
     -1195.947
  23754321.35707  23754324.19406  -7696577.45606  -1732125.43306      2033.156
      1584.270
  24843198.54405  24843202.95205   1367430.68905   3158983.17805     -2544.229
     -1982.503
  25284965.28705  25284970.99505  15016268.01305  17610219.23905     -4374.469
     -3408.671
  23159889.60607  23159894.38807   -357820.44907   -139803.77207     -4030.312
     -3140.495
  22377072.85709  22377075.57609 -11622567.14609  -8890217.56009      2165.055
      1687.054
 02  5 24  1  0  0.0010000  0  9G04G05G07G09G14G21G26G29G30
  24683880.61905  24683886.99605  -1211857.53605   -847864.94705      1421.308
      1107.513
  20850160.56509  20850163.69409 -17807502.14109 -13707535.69509       587.510
       457.799
  24188309.70206  24188314.01606   4300454.94606   3469261.88006     -3388.772
     -2640.594
  20583615.02009  20583617.71709 -15903333.93909 -12229148.98809     -1549.594
     -1207.476
  23742753.36507  23742755.46406  -7757368.19506  -1779494.82906      2019.662
      1573.763
  24857756.88305  24857762.40405   1443939.84605   3218600.56805     -2556.213
     -1991.833
  25309939.29405  25309946.43305  15147514.52805  17712489.13505     -4375.206
     -3409.226
  23182921.66707  23182925.48807   -236785.94607    -45491.25207     -4038.517
     -3146.896
  22364738.32409  22364741.30209 -11687386.44509  -8940726.05609      2156.325
      1680.251
 02  5 24  1  0 30.0010000  0  9G04G05G07G09G14G21G26G29G30
  24675802.27805  24675807.85805  -1254312.59705   -880946.78205      1409.071
      1097.995
  20846842.50509  20846845.88109 -17824938.81809 -13721122.70409       574.976
       448.034
  24207681.08406  24207683.93306   4402253.61606   3548585.55406     -3397.751
     -2647.592
  20592502.11609  20592505.09309 -15856631.71609 -12192757.64609     -1563.841
     -1218.577
  23731260.72807  23731263.47107  -7817762.27307  -1826555.15907      2006.623
      1563.603
  24872382.74805  24872390.96605   1520797.40805   3278489.46605     -2567.567
     -2000.708
  25334919.02605  25334927.42005  15278772.57005  17814768.02005     -4375.288
     -3409.321
  23205999.33207  23206004.70007   -115516.12607     49004.64707     -4046.074
     -3152.781
  22352451.45209  22352454.58209 -11751952.44809  -8991037.16509      2148.099
      1673.842
 02  5 24  1  1  0.0010000  0  9G04G05G07G09G14G21G26G29G30
  24667793.62605  24667799.07705  -1296400.39205   -913742.40705      1396.996
      1088.569
  20843595.70509  20843599.23309 -17842000.16209 -13734417.24009       562.646
       438.425
  24227103.62205  24227108.90805   4504319.44405   3628117.32305     -3406.427
     -2654.362
  20601470.40709  20601473.63109 -15809502.98909 -12156033.96809     -1577.870
     -1229.510
  23719842.58907  23719844.01906  -7877765.13606  -1873310.59606      1993.757
      1553.571
  24887072.26505  24887077.35205   1597993.40505   3338642.05105     -2578.615
     -2009.300
  25359896.83605  25359902.07605  15410031.84105  17917047.94005     -4375.095
     -3409.147
  23229118.74607  23229123.16607      5978.50007    143675.70407     -4053.349
     -3158.450
  22340211.90709  22340214.90809 -11816272.14409  -9041156.36509      2140.066
      1667.584
 02  5 24  1  1 30.0010000  0  9G04G05G07G09G14G21G26G29G30
  24659854.85905  24659860.56705  -1338118.77605   -946250.14005      1384.321
      1078.676
  20840420.25509  20840423.46609 -17858686.85509 -13747419.84809       549.872
       428.471
  24246577.33706  24246582.16706   4606649.18506   3707854.77006     -3415.450
     -2661.392
  20610519.70309  20610523.02009 -15761949.04909 -12118978.95209     -1592.321
     -1240.769
  23708499.06907  23708501.36707  -7937375.46607  -1919760.19207      1980.331
      1543.114
  24901826.35605  24901831.88905   1675524.51605   3399055.78405     -2590.079
     -2018.233
  25384873.42905  25384880.74305  15541289.39005  18019326.32005     -4375.280
     -3409.315
  23252280.36707  23252284.57507    127694.17607    238519.03107     -4060.967
     -3164.391
  22328018.79609  22328022.47609 -11880345.71609  -9091083.81209      2131.559
      1660.955
 02  5 24  1  2  0.0010000  0  9G04G05G07G09G14G21G26G29G30
  24651988.43205  24651992.73405  -1379456.84105   -978461.60505      1371.384
      1068.595
  20837318.11209  20837321.04309 -17874990.09409 -13760123.65709       536.881
       418.348
  24266100.62906  24266104.56806   4709249.45306   3787803.03806     -3424.677
     -2668.578
  20619651.44809  20619654.60109 -15713961.28709 -12081585.89109     -1606.997
     -1252.205
  23697232.54607  23697235.26607  -7996581.63607  -1965894.85807      1966.594
      1532.412
  24916645.02105  24916651.57305   1753396.32805   3459735.01805     -2601.552
     -2027.153
  25409852.29906  25409857.64405  15672551.50205  18121608.44805     -4375.640
     -3409.574
  23275485.41507  23275490.08107    249637.14707    333539.45107     -4068.716
     -3170.425
  22315874.85609  22315878.23209 -11944163.34709  -9140811.78909      2122.777
      1654.110
 02  5 24  1  2 30.0010000  0  9G04G05G07G09G14G21G26G29G30
  24644194.12405  24644199.36405  -1420411.48905  -1010374.22105      1358.691
      1058.719
  20834288.80409  20834292.07409 -17890909.89509 -13772528.68309       524.213
       408.478
  24285675.76606  24285678.65006   4812117.81106   3867960.16506     -3433.437
     -2675.404
  20628865.75509  20628868.68509 -15665539.85409 -12043854.90409     -1621.331
     -1263.375
  23686043.46807  23686045.09807  -8055381.63807  -2011713.03507      1953.143
      1521.930
  24931527.90105  24931534.07805   1831605.84105   3520677.37205     -2612.652
     -2035.830
  25434830.72805  25434835.21805  15803816.04105  18223892.48205     -4375.535
     -3409.518
  23298733.17607  23298737.57207    371804.63107    428734.82807     -4076.009
     -3176.114
  22303779.58809  22303782.42509 -12007724.19709  -9190339.66909      2114.345
      1647.540
 02  5 24  1  3  0.0010000  0  9G04G05G07G09G14G21G26G29G30
  24636474.70005  24636482.77705  -1460977.26705  -1041983.84105      1345.676
      1048.587
  20831332.74809  20831336.04209 -17906443.13909 -13784632.49209       511.322
       398.432
  24305301.72406  24305306.46005   4915254.90105   3948326.71905     -3442.376
     -2682.366
  20638163.06709  20638165.68109 -15616681.94409 -12005783.80709     -1635.875
     -1274.708
  23674932.41007  23674934.19207  -8113769.88907  -2057210.36207      1939.370
      1511.196
  24946474.83605  24946478.34105   1910153.56805   3581883.28805     -2623.883
     -2044.581
  25459811.27905  25459818.85105  15935083.76605  18326178.76805     -4375.620
     -3409.568
  23322023.55907  23322028.56407    494196.94707    524105.39507     -4083.445
     -3181.902
  22291733.83109  22291736.97309 -12071024.51309  -9239664.51609      2105.663
      1640.772
 02  5 24  1  3 30.0010000  0  9G04G05G07G09G14G21G26G29G30
  24628829.56705  24628832.70905  -1501152.57005  -1073289.21705      1332.879
      1038.613
  20828450.18709  20828453.19909 -17921591.02409 -13796436.02409       498.734
       388.624
  24324978.74906  24324982.75805   5018657.39105   4028900.09305     -3450.915
     -2689.016
  20647543.26609  20647545.92709 -15567389.12709 -11967373.82609     -1650.115
     -1285.803
  23663900.03807  23663902.35907  -8171745.03207  -2102385.78207      1925.823
      1500.642
  24961485.31805  24961490.86305   1989035.25605   3643349.39605     -2634.701
     -2053.018
  25484790.31505  25484795.46105  16066351.02805  18428464.85105     -4375.322
     -3409.343
  23345355.79107  23345360.63307    616810.02607    619647.96707     -4090.526
     -3187.422
  22279737.75909  22279741.26409 -12134064.66309  -9288786.61709      2097.226
      1634.200
 02  5 24  1  4  0.0010000  0  9G04G05G07G09G14G21G26G29G30
  24621258.44705  24621262.07005  -1540939.80405  -1104292.24205      1319.886
      1028.491
  20825639.96409  20825643.02309 -17936358.47809 -13807943.11809       486.030
       378.724
  24344704.64006  24344707.98005   5122317.70505   4109674.32305     -3459.467
     -2695.693
  20657005.08309  20657008.01409 -15517666.83809 -11928629.18809     -1664.440
     -1296.966
  23652945.57807  23652948.13307  -8229309.94307  -2147241.53407      1912.091
      1489.938
  24976558.47005  24976560.08805   2068242.61205   3705069.38305     -2645.498
     -2061.409
  25509765.84905  25509770.49105  16197610.47005  18530745.01205     -4375.060
     -3409.155
  23368729.16307  23368732.82007    739636.02707    715356.49107     -4097.584
     -3192.923
  22267790.26309  22267793.48609 -12196848.99109  -9337709.38709      2088.654
      1627.521
 02  5 24  1  4 30.0010000  0  9G04G05G07G09G14G21G26G29G30
  24613761.59305  24613762.54205  -1580334.74905  -1134989.55105      1306.284
      1017.873
  20822902.59409  20822905.82909 -17950743.88509 -13819152.51309       472.820
       368.430
  24364479.71605  24364484.74405   5226235.29605   4190649.03205     -3468.505
     -2702.742
  20666548.99609  20666551.88009 -15467513.64109 -11889548.77409     -1679.285
     -1308.534
  23642070.79007  23642072.18507  -8286460.62507  -2191774.52807      1897.755
      1478.768
  24991692.92505  24991699.36005   2147774.83005   3767042.37705     -2656.775
     -2070.204
  25534745.79605  25534750.88305  16328861.61005  18633018.37205     -4375.162
     -3409.196
  23392142.78707  23392148.14407    862673.75707    811229.97307     -4105.078
     -3198.759
  22255891.88609  22255894.95709 -12259375.15409  -9386431.03009      2079.580
      1620.451
 02  5 24  1  5  0.0010000  0  9G04G05G07G09G14G21G26G29G30
  24606341.64005  24606346.70405  -1619329.83405  -1165375.27105      1293.300
      1007.756
  20820238.81009  20820241.83509 -17964742.25809 -13830060.32409       460.341
       358.707
  24384304.49306  24384309.42805   5330412.71505   4271826.24805     -3476.705
     -2709.121
  20676175.58509  20676178.79609 -15416924.64509 -11850128.77709     -1693.380
     -1319.517
  23631274.76707  23631277.32207  -8343189.52407  -2235978.83807      1884.091
      1468.121
  25006889.54305  25006895.29805   2227633.85405   3829270.07405     -2667.178
     -2078.303
  25559720.14905  25559724.09905  16460106.94005  18735287.40005     -4374.563
     -3408.733
  23415596.86107  23415603.01507    985925.59307    907270.29207     -4111.755
     -3203.959
  22244043.78409  22244046.75009 -12321637.41909  -9434947.04109      2071.173
      1613.901
 02  5 24  1  5 30.0010000  0  9G04G05G07G09G14G21G26G29G30
  24598996.96905  24599000.55605  -1657924.99505  -1195449.39605      1279.562
       997.061
  20817648.10109  20817651.11309 -17978356.17809 -13840668.56209       447.126
       348.409
  24404177.01706  24404181.22505   5434845.10705   4353202.10005     -3485.561
     -2716.019
  20685884.78909  20685888.00109 -15365902.78309 -11810371.48509     -1708.202
     -1331.067
  23620560.05507  23620562.59807  -8399496.88507  -2279854.70607      1869.604
      1456.829
  25022147.64805  25022150.82505   2307814.45105   3891748.32405     -2678.277
     -2086.966
  25584692.55905  25584697.69304  16591341.83004  18837548.20704     -4374.560
     -3408.745
  23439090.24107  23439095.24607   1109386.03907   1003473.16207     -4119.044
     -3209.648
  22232245.68809  22232248.81809 -12383637.25709  -9483258.55909      2062.024
      1606.767
 02  5 24  1  6  0.0010000  0  9G04G05G07G09G14G21G26G29G30
  24591729.76305  24591731.50905  -1696112.89305  -1225206.12805      1266.292
       986.713
  20815131.49009  20815134.52609 -17991580.95409 -13850973.57009       434.511
       338.580
  24424098.65705  24424102.46705   5539534.99505   4434778.63705     -3493.768
     -2722.412
  20695677.04309  20695680.02009 -15314443.87109 -11770273.62909     -1722.416
     -1342.142
  23609926.78408  23609928.61307  -8455375.84907  -2323396.71407      1855.622
      1445.941
  25037467.53605  25037471.04105   2388318.53905   3954478.67205     -2688.682
     -2095.045
  25609664.56805  25609671.44905  16722568.70605  18939802.94405     -4373.908
     -3408.230
  23462624.36107  23462628.85007   1233057.18907   1099840.23107     -4125.666
     -3214.800
  22220498.42809  22220501.56909 -12445369.26209  -9531361.37509      2053.431
      1600.076
 02  5 24  1  6 30.0010000  0  9G04G05G07G09G14G21G26G29G30
  24584538.11805  24584543.05305  -1733903.49705  -1254653.30605      1252.820
       976.228
  20812686.57709  20812689.76509 -18004429.19609 -13860985.17009       421.803
       328.677
  24444066.98906  24444070.17805   5644467.45705   4516544.16505     -3501.963
     -2728.807
  20705550.10109  20705552.85609 -15262560.72109 -11729845.21309     -1736.698
     -1353.271
  23599373.13908  23599374.33507  -8510836.52807  -2366612.80507      1841.505
      1434.939
  25052845.02105  25052850.13205   2469130.41505   4017448.80405     -2699.025
     -2103.126
  25634632.84405  25634639.64305  16853772.68105  19042039.66305     -4373.241
     -3407.698
  23486195.25007  23486200.36107   1356923.71407   1196359.52207     -4132.297
     -3219.966
  22208799.55609  22208802.96709 -12506845.35609  -9579264.78209      2044.731
      1593.297
 02  5 24  1  7  0.0010000  0  9G04G05G07G09G14G21G26G29G30
  24577424.29305  24577428.09105  -1771291.10105  -1283786.39405      1239.491
       965.836
  20810313.71909  20810316.48609 -18016898.00709 -13870701.10909       409.276
       318.915
  24464081.73406  24464086.04805   5749642.89805   4598499.07005     -3509.894
     -2734.992
  20715504.44809  20715507.42509 -15210250.69909 -11689084.14909     -1750.814
     -1364.270
  23588899.80908  23588902.43507  -8565873.58807  -2409498.82607      1827.454
      1423.991
  25068281.25605  25068285.10105   2550250.26605   4080658.95505     -2709.128
     -2111.005
  25659591.88604  25659604.39305  16984954.45805  19144259.07005     -4372.366
     -3407.021
  23509804.07806  23509809.59906   1480985.73506   1293031.17106     -4138.666
     -3224.928
  22197150.70209  22197153.94909 -12568061.60309  -9626965.69109      2036.172
      1586.626
 02  5 24  1  7 30.0010000  0  9G04G05G07G09G14G21G26G29G30
  24570387.29905  24570395.10605  -1808270.79005  -1312601.74505      1225.591
       954.986
  20808013.75009  20808016.69209 -18028984.74509 -13880119.34409       396.263
       308.776
  24484141.71206  24484143.59905   5855062.02605   4680643.82205     -3518.266
     -2741.511
  20725540.46809  20725543.79709 -15157511.16109 -11647988.41609     -1765.399
     -1375.636
  23578507.97607  23578509.66407  -8620481.94907  -2452050.77507      1812.857
      1412.617
  25083777.24105  25083784.39105   2631678.21005   4144109.16705     -2719.617
     -2119.171
  25684555.38406  25684560.64705  17116114.37905  19246461.55205     -4371.857
     -3406.642
  23533448.90606  23533454.65006   1605243.06606   1389854.98706     -4145.386
     -3230.171
  22185551.58609  22185554.29309 -12629014.54009  -9674461.44109      2027.119
      1579.570
 02  5 24  1  8  0.0010000  0  9G04G05G07G09G14G21G26G29G30
  24563429.70405  24563433.73605  -1844833.09805  -1341091.76905      1212.039
       944.444
  20805787.65209  20805791.01609 -18040682.61609 -13889234.54609       383.705
       298.990
  24504249.81806  24504252.13905   5960729.07405   4762981.76505     -3526.090
     -2747.598
  20735659.44109  20735662.57109 -15104335.84509 -11606553.10709     -1779.507
     -1386.629
  23568199.88107  23568201.21807  -8674652.79707  -2494261.82807      1798.630
      1401.531
  25099332.04305  25099336.27505   2713417.60105   4207802.08405     -2729.573
     -2126.933
  25709510.64305  25709518.61405  17247256.93805  19348650.55405     -4370.847
     -3405.858
  23557132.65006  23557137.53806   1729699.85806   1486834.21906     -4151.603
     -3235.020
  22174003.99109  22174006.69909 -12689696.78809  -9721746.25709      2018.471
      1572.832
 02  5 24  1  8 30.0010000  0  9G04G05G07G09G14G21G26G29G30
  24556550.70505  24556556.97705  -1880981.85905  -1369259.57405      1197.845
       933.392
  20803634.41109  20803637.57609 -18051998.27609 -13898051.93109       370.627
       288.799
  24524403.02905  24524406.31105   6066635.29405   4845506.06905     -3534.358
     -2754.038
  20745859.89109  20745863.00909 -15050731.81209 -11564783.73109     -1794.134
     -1398.026
  23557973.34708  23557974.82407  -8728390.16107  -2536135.08507      1783.807
      1389.980
  25114944.07905  25114948.52205   2795458.72205   4271730.05005     -2739.885
     -2134.978
  25734460.72305  25734469.25705  17378373.71505  19450819.17205     -4370.292
     -3405.413
  23580852.19907  23580857.77806   1854346.71706   1583961.55906     -4158.215
     -3240.168
  22162507.06209  22162509.89809 -12750114.09809  -9768824.63109      2009.302
      1565.690
 02  5 24  1  9  0.0010000  0  9G04G05G07G09G14G21G26G29G30
  24549751.24805  24549753.68605  -1916710.93805  -1397100.41805      1184.069
       922.650
  20801554.47109  20801557.60109 -18062927.86209 -13906568.48209       357.997
       278.959
  24544601.96905  24544609.22505   6172782.09405   4928217.85105     -3542.094
     -2760.074
  20756142.61009  20756145.70509 -14996695.38009 -11522677.42009     -1808.309
     -1409.072
  23547831.74107  23547833.38207  -8781687.90607  -2577665.78807      1769.343
      1378.710
  25130612.86005  25130618.93205   2877802.79105   4335894.13005     -2749.717
     -2142.623
  25759407.09505  25759414.41005  17509465.68105  19552968.74905     -4369.202
     -3404.596
  23604608.15306  23604613.76806   1979184.64006   1681237.80206     -4164.307
     -3244.916
  22151061.18209  22151064.08909 -12810261.78309  -9815692.90409      2000.542
      1558.861
 02  5 24  1  9 30.0010000  0  9G04G05G07G09G14G21G26G29G30
  24543031.22505  24543035.52705  -1952022.71005  -1424616.04605      1170.199
       911.853
  20799547.12809  20799550.46809 -18073476.42409 -13914788.12609       345.379
       269.126
  24564844.67105  24564848.02305   6279162.30405   5011111.54705     -3549.761
     -2766.041
  20766506.71909  20766509.83709 -14942231.98109 -11480238.41309     -1822.443
     -1420.087
  23537772.59407  23537774.29407  -8834548.57107  -2618855.90607      1754.824
      1367.395
  25146338.70305  25146343.66105   2960441.67605   4400287.95005     -2759.389
     -2150.169
  25784348.19505  25784354.04404  17640525.96904  19655093.56204     -4367.986
     -3403.616
  23628399.44807  23628404.23106   2104205.97406   1778656.93306     -4170.301
     -3249.579
  22139666.20009  22139668.75509 -12870144.11909  -9862354.44109      1991.768
      1552.027
 02  5 24  1 10  0.0010000  0  9G04G05G07G09G14G21G26G29G30
  24536391.36705  24536396.24305  -1986918.31105  -1451807.40505      1155.995
       900.748
  20797611.74709  20797614.94809 -18083647.49209 -13922713.62309       332.510
       259.098
  24585131.81905  24585138.70005   6385770.01905   5094182.42705     -3557.578
     -2772.119
  20776951.18109  20776954.15909 -14887345.55809 -11437469.77209     -1836.835
     -1431.299
  23527796.37707  23527798.94407  -8886973.53907  -2659706.52307      1739.980
      1355.833
  25162119.92205  25162126.36904   3043369.10104   4464906.46204     -2769.261
     -2157.810
  25809279.66205  25809284.94905  17771548.75905  19757189.13505     -4367.013
     -3402.857
  23652223.32406  23652228.75106   2229404.27406   1876213.97806     -4176.442
     -3254.364
  22128320.88309  22128323.50909 -12929763.79109  -9908811.27509      1982.690
      1544.952
 02  5 24  1 10 30.0010000  0  9G04G05G07G09G14G21G26G29G30
  24529831.02505  24529835.69105  -2021390.60805  -1478668.88305      1141.798
       889.699
  20795748.95109  20795752.18609 -18093436.63609 -13930341.51709       319.733
       249.142
  24605463.20005  24605469.92805   6492607.50605   5177432.41005     -3565.282
     -2778.132
  20787476.97609  20787480.04709 -14832031.66509 -11394368.04609     -1851.121
     -1442.431
  23517904.21907  23517905.88407  -8938956.01007  -2700212.33007      1725.140
      1344.266
  25177955.14005  25177962.19705   3126586.41505   4529751.05605     -2778.931
     -2165.410
  25834205.70006  25834214.08105  17902536.36805  19859257.29705     -4365.851
     -3401.956
  23676081.63806  23676086.90206   2354781.41906   1973910.37306     -4182.413
     -3259.016
  22117026.39709  22117029.02209 -12989115.62809  -9955059.42209      1973.722
      1537.963
 02  5 24  1 11  0.0010000  0  9G04G05G07G09G14G21G26G29G30
  24523353.81505  24523358.99605  -2055432.14505  -1505194.66205      1127.499
       878.579
  20793959.83309  20793962.92809 -18102839.01509 -13937668.03609       306.952
       239.184
  24625837.74205  24625843.02905   6599677.39805   5260863.43005     -3572.860
     -2784.033
  20798085.24509  20798088.51609 -14776286.06109 -11350929.92309     -1865.390
     -1453.549
  23508098.17907  23508101.34407  -8990488.57307  -2740367.55607      1710.220
      1332.641
  25193846.86505  25193852.03505   3210095.93605   4594823.29005     -2788.481
     -2172.839
  25859124.42004  25859132.40304  18033491.54004  19961300.31104     -4364.631
     -3400.979
  23699975.23107  23699979.65106   2480339.63306   2071747.83806     -4188.280
     -3263.585
  22105784.31909  22105787.34309 -13048193.76809 -10001094.28309      1964.679
      1530.916
 02  5 24  1 11 30.0010000  0  9G04G05G07G09G14G21G26G29G30
  24516956.13205  24516959.80105  -2089050.37605  -1531390.66605      1113.555
       867.704
  20792242.21509  20792245.33309 -18111864.53309 -13944700.89709       294.595
       229.554
  24646254.53005  24646259.35905   6706967.36005   5344465.97105     -3579.941
     -2789.565
  20808773.55809  20808776.68809 -14720119.08609 -11307163.45309     -1879.220
     -1464.327
  23498375.81108  23498377.66307  -9041579.24307  -2780178.47107      1695.648
      1321.288
  25209792.21405  25209800.49005   3293884.52705   4660112.94505     -2797.565
     -2179.935
  25884038.62906  25884044.46705  18164402.15505  20063308.44905     -4362.871
     -3399.643
  23723899.58806  23723904.96806   2606066.02306   2169716.39106     -4193.620
     -3267.750
  22094592.32709  22094595.42209 -13107007.54109 -10046923.15209      1956.077
      1524.214
 02  5 24  1 12  0.0010000  0  9G04G05G07G09G14G21G26G29G30
  24510642.22306  24510643.88805  -2122236.15905  -1557249.66205      1098.906
       856.286
  20790597.66109  20790600.82609 -18120506.41709 -13951434.82209       281.638
       219.458
  24666713.28405  24666718.04305   6814482.06905   5428243.62805     -3587.596
     -2795.530
  20819542.97009  20819545.81909 -14663524.35609 -11263063.66709     -1893.652
     -1475.573
  23488739.61908  23488742.42007  -9092218.69507  -2819637.76807      1680.403
      1309.402
  25225790.27005  25225795.90804   3377956.24604   4725623.18904     -2807.114
     -2187.375
  25908941.76805  25908947.24305  18295272.53205  20165285.29005     -4361.675
     -3398.710
  23747857.80606  23747862.35406   2731964.80806   2267819.24606     -4199.511
     -3272.334
  22083452.02309  22083455.24709 -13165549.33909 -10092540.09509      1946.808
      1516.992
 02  5 24  1 12 30.0010000  0  9G04G05G07G09G14G21G26G29G30
  24504407.89405  24504411.37605  -2154991.25605  -1582773.05505      1084.762
       845.269
  20789025.37909  20789028.68509 -18128769.05609 -13957873.23009       269.244
       209.801
  24687214.35405  24687220.57905   6922214.81805   5512191.21005     -3594.557
     -2800.948
  20830393.29709  20830396.27409 -14606506.56009 -11218634.21709     -1907.491
     -1486.356
  23479188.29108  23479190.06107  -9142409.18207  -2858747.23607      1665.641
      1297.905
  25241842.10805  25241846.04705   3462304.01805   4791348.66705     -2816.031
     -2194.302
  25933836.40904  25933841.61304  18426096.52104  20267225.94404     -4359.867
     -3397.279
  23771846.55306  23771852.26206   2858028.74806   2366050.84106     -4204.705
     -3276.392
  22072362.89809  22072366.00409 -13223822.71509 -10137947.87409      1938.102
      1510.208
 02  5 24  1 13  0.0010000  0  9G04G05G07G09G14G21G24G29G30
  24498256.61705  24498260.43805  -2187316.17005  -1607961.29705      1070.283
       833.979
  20787524.68309  20787528.11809 -18136655.32909 -13964018.36609       256.606
       199.953
  24707756.22205  24707759.72705   7030160.66705   5596304.81705     -3601.686
     -2806.505
  20841323.03009  20841326.59409 -14549068.91009 -11173877.61309     -1921.588
     -1497.341
  23469723.03508  23469724.86307  -9192150.98607  -2897507.05707      1650.555
      1286.152
  25257943.25505  25257951.89504   3546922.05504   4857284.58404     -2825.073
     -2201.337
  25407056.90805          .00001    -49351.86601          .00011      2242.284
          .000
  23795866.03006  23795871.79806   2984252.32106   2464406.78306     -4210.098
     -3280.587
  22061324.76709  22061328.06109 -13281829.60309 -10183148.00109      1929.120
      1503.208
 02  5 24  1 13 30.0010000  0  9G04G05G07G09G14G21G24G29G30
  24492188.43305  24492192.26605  -2219202.57405  -1632807.79805      1055.423
       822.408
  20786096.55209  20786099.96309 -18144159.68709 -13969865.90709       243.665
       189.869
  24728338.08605  24728341.64905   7138322.90905   5680587.06205     -3609.099
     -2812.281
  20852333.96909  20852337.42709 -14491205.93909 -11128789.59109     -1935.958
     -1508.538
  23460344.19008  23460347.61207  -9241436.33107  -2935911.23407      1635.094
      1274.099
  25274098.12105  25274106.25704   3631812.71104   4923433.14404     -2834.323
     -2208.569
  25394265.42205          .00001   -116569.28301          .00011      2238.866
          .000
  23819917.13607  23819921.64906   3110638.62906   2562889.51006     -4215.669
     -3284.940
  22050338.18909  22050341.43609 -13339563.57809 -10228135.46109      1919.778
      1495.929
 02  5 24  1 14  0.0010000  0  9G04G05G07G09G14G21G24G29G30
  24486205.21505  24486208.82505  -2250646.34005  -1657309.39005      1040.608
       810.864
  20784741.45909  20784744.78809 -18151280.53509 -13975414.61309       230.873
       179.901
  24748961.83305  24748966.17005   7246701.02005   5765037.48105     -3616.283
     -2817.874
  20863426.17409  20863429.33809 -14432916.56909 -11083369.30509     -1950.184
     -1519.624
  23451053.09908  23451054.88107  -9290261.24307  -2973956.60707      1619.703
      1262.108
  25290303.57905  25290314.60904   3716974.86504   4989792.86004     -2843.311
     -2215.591
  25381493.22305  25381498.52105   -183687.20905    -15679.79205      2235.482
      1741.922
  23843998.59606  23844003.53106   3237186.51706   2661498.21306     -4221.022
     -3289.102
  22039403.96309  22039406.58909 -13397022.17509 -10272908.35009      1910.596
      1488.776
 02  5 24  1 14 30.0010000  0  9G04G05G07G09G14G21G24G29G30
  24480306.55405  24480312.96605  -2281641.72705  -1681461.62305      1025.695
       799.261
  20783460.19609  20783463.60709 -18158014.37209 -13980661.74609       218.030
       169.894
  24769627.46305  24769628.79905   7355296.28205   5849657.16005     -3623.400
     -2823.431
  20874599.92909  20874603.03509 -14374197.53709 -11037614.21709     -1964.437
     -1530.730
  23441850.91508  23441853.24807  -9338619.95707  -3011638.72307      1604.183
      1250.011
  25306561.22405  25306571.38705   3802409.09405   5056364.89305     -2852.282
     -2222.536
  25368738.68105  25368745.72605   -250699.22805    -67896.76305      2232.022
      1739.249
  23868110.42806  23868116.11306   3363896.67306   2760233.29006     -4226.324
     -3293.236
  22028523.32609  22028525.84709 -13454201.07809 -10317463.30009      1901.315
      1481.543
 02  5 24  1 15  0.0010000  0  9G04G05G07G09G14G21G24G29G30
  24474494.33705  24474499.71705  -2312190.13205  -1705265.53305      1010.742
       787.599
  20782251.52609  20782254.72609 -18164365.21009 -13985610.44809       205.249
       159.934
  24790332.03705  24790333.39705   7464102.53305   5934441.25505     -3630.435
     -2828.901
  20885854.73209  20885858.22609 -14315053.38109 -10991527.87709     -1978.613
     -1541.776
  23432737.19508  23432739.54007  -9386514.01507  -3048958.75307      1588.645
      1237.907
  25322870.33205  25322878.47905   3888108.35705   5123143.39705     -2861.073
     -2229.391
  25356008.06605  25356019.96405   -317606.38505   -120031.93705      2228.376
      1736.414
  23892253.41406  23892258.16106   3490762.42306   2859089.61106     -4231.475
     -3297.256
  22017695.22309  22017698.16509 -13511103.48709 -10361802.79109      1892.064
      1474.336
 02  5 24  1 15 30.0010000  0  9G04G05G07G09G14G21G24G29G30
  24468766.85805  24468771.88705  -2342288.92005  -1728719.08605       995.879
       776.016
  20781115.93309  20781119.28509 -18170332.74409 -13990260.46209       192.644
       150.112
  24811077.39705  24811081.47605   7573117.70405   6019388.09405     -3637.196
     -2834.170
  20897190.40709  20897193.68909 -14255484.27909 -10945110.40109     -1992.602
     -1552.677
  23423711.68108  23423714.06107  -9433941.10507  -3085914.93307      1573.200
      1225.869
  25339226.58904  25339233.75104   3974069.82404   5190126.07704     -2869.618
     -2236.056
  25343295.48405  25343300.40705   -384405.18405   -172082.76605      2224.891
      1733.682
  23916422.97506  23916428.73006   3617781.36306   2958065.31306     -4236.392
     -3301.089
  22006919.59309  22006922.64109 -13567728.55909 -10405926.18509      1882.973
      1467.250
 02  5 24  1 16  0.0010000  0  9G04G05G07G09G14G21G24G29G30
  24463123.69005  24463127.38305  -2371939.60405  -1751823.48805       980.608
       764.116
  20780052.52509  20780055.90109 -18175920.89909 -13994614.85609       179.697
       140.023
  24831860.75905  24831864.28805   7682335.90305   6104493.14105     -3644.210
     -2839.641
  20908606.44309  20908609.36209 -14195494.40609 -10898365.05409     -2006.923
     -1563.835
  23414775.31608  23414778.66907  -9480902.74307  -3122508.42407      1557.355
      1213.518
  25355633.97505  25355638.96805   4060287.08105   5257308.29005     -2878.396
     -2242.896
  25330605.66405  25330614.76005   -451096.46405   -224049.85205      2220.969
      1730.607
  23940622.20306  23940626.65706   3744947.17706   3057155.49006     -4241.533
     -3305.089
  21996196.46809  21996199.64509 -13624078.84309 -10449835.46109      1873.496
      1459.865
 02  5 24  1 16 30.0010000  0  9G04G05G07G09G14G21G24G29G30
  24457568.62306  24457573.60505  -2401135.84505  -1774573.78405       965.585
       752.402
  20779061.97909  20779065.33209 -18181126.01509 -13998670.78509       167.100
       130.207
  24852683.20705  24852688.45805   7791758.41605   6189757.41005     -3650.828
     -2844.801
  20920102.69809  20920105.20709 -14135080.46009 -10851289.26309     -2020.877
     -1574.710
  23405928.43408  23405930.55607  -9527393.08607  -3158734.64907      1541.780
      1201.390
  25372089.55805  25372097.66904   4146760.90704   5324690.42004     -2886.719
     -2249.355
  25317935.62205  25317941.96304   -517673.35104   -275927.73204      2217.298
      1727.765
  23964849.64606  23964854.59306   3872260.47406   3156360.55706     -4246.204
     -3308.721
  21985526.42609  21985529.53209 -13680150.20009 -10493527.39109      1864.363
      1452.749
 02  5 24  1 17  0.0010000  0  9G04G05G07G09G14G21G24G29G30
  24452098.05505  24452103.90405  -2429880.23405  -1796971.95805       950.519
       740.655
  20778143.46109  20778146.79009 -18185952.80209 -14002431.90709       154.505
       120.393
  24873543.39305  24873546.45305   7901378.47105   6275175.65105     -3657.346
     -2849.886
  20931678.69409  20931681.27309 -14074247.65709 -10803887.08309     -2034.819
     -1585.573
  23397170.89208  23397172.96707  -9573414.51107  -3194595.48307      1526.130
      1189.190
  25388593.03105  25388601.27205   4233483.64705   5392266.34205     -2894.949
     -2255.782
  25305287.43305  25305293.51605   -584137.83205   -327718.04505      2213.510
      1724.787
  23989102.61606  23989109.25105   3999713.79805   3255674.70105     -4250.804
     -3312.315
  21974908.73209  21974911.54509 -13735946.54009 -10537005.02109      1855.204
      1445.611
 02  5 24  1 17 30.0010000  0  9G04G05G07G09G14G21G24G29G30
  24446715.15605  24446718.64905  -2458167.86705  -1819014.18205       935.375
       728.861
  20777297.46709  20777300.60909 -18190398.58809 -14005896.14509       141.948
       110.609
  24894440.69505  24894443.30905   8011196.51205   6360748.07405     -3663.779
     -2854.894
  20943334.89209  20943338.13909 -14012993.74309 -10756156.77309     -2048.706
     -1596.393
  23388503.44408  23388505.56607  -9618962.32707  -3230087.29107      1510.448
      1176.973
  25405143.09104  25405146.16304   4320454.64004   5460035.89704     -2902.986
     -2262.070
  25292662.19105  25292670.67804   -650484.12904   -379416.32804      2209.652
      1721.794
  24013384.00206  24013388.32706   4127307.29706   3355098.15006     -4255.313
     -3315.830
  21964343.85009  21964346.61609 -13791464.46809 -10580265.69809      1846.052
      1438.482
 02  5 24  1 18  0.0010000  0  9G04G05G06G07G09G14G24G29G30
  24441418.98006  24441422.77805  -2485997.45905  -1840699.55405       920.081
       716.943
  20776523.68909  20776526.94809 -18194464.79609 -14009064.61509       129.309
       100.760
  25612927.91904          .00001    -15501.60101          .00011      3100.871
          .000
  24915375.58905  24915378.82405   8121208.90005   6446471.97605     -3670.186
     -2859.890
  20955070.95109  20955074.08109 -13951320.66709 -10708099.84109     -2062.658
     -1607.266
  23379926.47208  23379928.44107  -9664035.66507  -3265209.38307      1494.610
      1164.630
  25280060.57905  25280066.05305   -716710.42605   -431021.12305      2205.609
      1718.641
  24037689.74806  24037694.36706   4255036.93006   3454627.64206     -4259.789
     -3319.313
  21953832.13109  21953834.88609 -13846704.37409 -10623309.75609      1836.784
      1431.258
 02  5 24  1 18 30.0010000  0  9G04G05G06G07G09G14G24G29G30
  24436212.54506  24436215.16005  -2513362.45705  -1862022.86505       904.522
       704.809
  20775822.91909  20775826.11909 -18198147.40909 -14011934.17009       116.476
        90.760
  25595229.20805          .00001   -108513.86501          .00011      3100.181
          .000
  24936346.79805  24936350.84205   8231417.78605   6532348.98805     -3676.768
     -2865.047
  20966887.38609  20966890.43409 -13889224.25509 -10659713.03109     -2076.815
     -1618.297
  23371440.92008  23371443.10107  -9708628.00607  -3299956.65207      1478.492
      1152.073
  25267481.90105  25267485.91005   -782809.26605   -482526.53105      2201.273
      1715.259
  24062021.76605  24062027.22906   4382904.32106   3554264.42506     -4264.389
     -3322.893
  21943374.21909  21943377.18409 -13901661.03409 -10666133.09109      1827.276
      1423.851
 02  5 24  1 19  0.0010000  0  9G04G05G06G07G09G14G24G29G30
  24431093.23906  24431096.76705  -2540261.44305  -1882983.11905       888.660
       692.465
  20775194.90309  20775198.20809 -18201447.28009 -14014505.49409       103.437
        80.599
  25577532.39105          .00001   -201506.53901          .00011      3099.211
          .000
  24957356.47205  24957361.00805   8341820.16705   6618376.72205     -3683.473
     -2870.243
  20978784.31309  20978787.45509 -13826705.84409 -10610997.39509     -2091.157
     -1629.473
  23363046.62508  23363049.22707  -9752737.86607  -3334327.95607      1462.084
      1139.284
  25254928.66905  25254937.83605   -848778.65005   -533931.06905      2196.587
      1711.594
  24086380.14506  24086385.72406   4510905.84606   3654005.80506     -4269.083
     -3326.551
  21932970.10509  21932972.87209 -13956334.78309 -10708735.97109      1817.553
      1416.274
 02  5 24  1 19 30.0010000  0  9G04G05G06G07G09G14G24G29G30
  24426063.81506  24426066.92105  -2566693.10805  -1903579.20905       873.507
       680.655
  20774639.71709  20774642.98709 -18204365.57009 -14016779.47209        91.170
        71.041
  25559839.01105  25559847.32205   -294478.84805    -57954.44805      3098.988
      2414.794
  24978401.91505  24978407.15505   8452412.83505   6704552.83205     -3689.316
     -2874.784
  20990761.02009  20990764.40709 -13763767.09309 -10561954.22109     -2104.697
     -1640.024
  23354744.76608  23354746.51307  -9796364.04107  -3368322.38207      1446.381
      1127.051
  25242400.12405  25242409.93505   -914616.36105   -585233.00705      2192.647
      1708.545
  24110762.06505  24110766.91805   4639037.85005   3753848.84905     -4272.942
     -3329.559
  21922619.77609  21922622.92909 -14010725.80209 -10751118.53709      1808.578
      1409.281
 02  5 24  1 20  0.0010000  0  9G04G05G06G07G09G14G24G29G30
  24421122.70006  24421126.90905  -2592658.06005  -1923811.59005       857.748
       668.384
  20774156.37109  20774159.71209 -18206905.08709 -14018758.31509        78.389
        61.082
  25542152.71305  25542161.41105   -387431.35605   -130384.85405      3098.108
      2414.109
  24999481.71805  24999485.35205   8563190.69805   6790873.19405     -3695.597
     -2879.689
  21002817.34609  21002820.76909 -13700411.36009 -10512586.12309     -2118.751
     -1650.975
  23346534.92208  23346537.06707  -9839507.45107  -3401940.61807      1430.094
      1114.359
  25229895.51705  25229900.21805   -980322.03005   -636432.03405      2188.031
      1704.946
  24135169.35505  24135173.42206   4767294.63406   3853789.04606     -4277.250
     -3332.914
  21912323.00909  21912326.29209 -14064836.11509 -10793282.38009      1799.040
      1401.847
 02  5 24  1 20 30.0010000  0  9G04G05G06G07G09G14G24G29G30
  24416270.47305  24416276.04105  -2618151.54805  -1943676.60005       842.011
       656.117
  20773745.60709  20773748.86609 -18209063.48509 -14020440.17409        65.741
        51.227
  25524468.87305  25524477.52405   -480359.35105   -202796.13005      3097.293
      2413.469
  25020597.34905  25020602.38905   8674154.02105   6877338.07905     -3701.696
     -2884.446
  21014953.39309  21014956.95609 -13636636.47509 -10462891.41609     -2132.662
     -1661.813
  23338417.99208  23338419.86807  -9882163.52507  -3435179.10507      1413.857
      1101.709
  25217418.81205  25217425.78605  -1045890.38505   -687524.14505      2183.427
      1701.356
  24159599.12906  24159605.70505   4895676.02105   3953826.39005     -4281.299
     -3336.091
  21902080.28509  21902082.79409 -14118662.35909 -10835224.87209      1789.621
      1394.509
 02  5 24  1 21  0.0010000  0  9G04G05G06G07G09G14G24G29G30
  24411511.34905  24411516.75205  -2643164.13905  -1963166.90905       825.936
       643.588
  20773408.68309  20773411.94209 -18210834.06509 -14021819.83309        52.775
        41.122
  25506791.13905  25506796.57805   -573253.88405   -275181.45105      3096.117
      2412.581
  25041749.21305  25041753.55005   8785307.84905   6963951.45205     -3708.055
     -2889.393
  21027170.25209  21027173.61609 -13572436.11009 -10412865.16809     -2146.876
     -1672.890
  23330395.13008  23330396.73607  -9924323.05307  -3468030.69007      1397.242
      1088.763
  25204969.19605  25204974.35305  -1111311.31005   -738501.42705      2178.423
      1697.468
  24184054.46205  24184058.95205   5024186.57105   4053964.40805     -4285.575
     -3339.405
  21891893.14509  21891895.60709 -14172196.94509 -10876940.10609      1779.840
      1386.888
 02  5 24  1 21 30.0010000  0  9G04G05G06G07G09G14G24G29G30
  24406841.96306  24406846.43005  -2667700.38505  -1982285.99005       809.910
       631.102
  20773144.47609  20773147.74609 -18212223.18309 -14022902.26209        39.967
        31.143
  25489119.51005  25489124.78505   -666119.29805   -347543.89305      3095.011
      2411.695
  25062935.58605  25062942.04505   8896643.37505   7050706.37105     -3714.173
     -2894.167
  21039466.84409  21039469.78609 -13507817.18709 -10362512.76709     -2160.909
     -1683.825
  23322466.11808  23322468.66107  -9965990.26707  -3500498.63507      1380.704
      1075.868
  25192547.34805  25192556.33905  -1176588.07205   -789366.24105      2173.479
      1693.619
  24208531.96105  24208538.99405   5152816.85205   4154195.66405     -4289.625
     -3342.557
  21881760.09809  21881762.84109 -14225445.49509 -10918432.45409      1770.196
      1379.373
 02  5 24  1 22  0.0010000  0  9G04G05G06G07G09G14G24G29G30
  24402263.36906  24402269.74505  -2691760.29905  -2001033.90705       794.042
       618.731
  20772952.18409  20772955.45509 -18213233.47809 -14023689.49409        27.360
        21.320
  25471452.72805  25471460.57005   -758955.98205   -419884.02905      3094.057
      2410.931
  25084155.97205  25084161.64605   9008155.81805   7137599.08405     -3720.009
     -2898.734
  21051842.37409  21051845.42209 -13442782.94609 -10311836.74009     -2174.741
     -1694.604
  23314630.62808  23314632.19907 -10007165.60907  -3532583.31707      1364.284
      1063.078
  25180153.12205  25180159.01805  -1241720.21805   -840118.47005      2168.598
      1689.815
  24233030.75305  24233036.49605   5281561.67705   4254516.20405     -4293.375
     -3345.486
  21871681.21409  21871683.54609 -14278409.72309 -10959703.24909      1760.719
      1371.987
 02  5 24  1 22 30.0010000  0  9G04G05G06G07G09G14G24G29G30
  24397777.03706  24397779.59305  -2715337.14905  -2019405.44605       777.787
       606.073
  20772832.87509  20772835.90009 -18213860.23309 -14024177.86709        14.462
        11.270
  25453793.27905  25453802.24705   -851757.14505   -492196.50005      3092.711
      2409.901
  25105410.31205  25105413.51205   9119847.91505   7224631.82605     -3726.067
     -2903.425
  21064298.00209  21064301.00309 -13377328.79609 -10260833.51709     -2188.833
     -1705.583
  23306890.35008  23306892.58907 -10047842.38007  -3564279.49607      1347.522
      1050.014
  25167787.62505  25167795.12705  -1306700.19105   -890752.05905      2163.381
      1685.763
  24257552.93105  24257557.18605   5410423.23205   4354927.68005     -4297.358
     -3348.587
  21861657.64609  21861660.00209 -14331084.12509 -11000748.21509      1750.939
      1364.368
 02  5 24  1 23  0.0010000  0  9G04G05G06G07G09G14G24G29G30
  24393382.26206  24393385.45005  -2738431.78005  -2037401.25305       761.775
       593.592
  20772786.02609  20772789.08509 -18214106.77209 -14024369.96609         1.901
         1.481
  25436140.51405  25436146.80905   -944523.63005   -564481.93105      3091.633
      2409.073
  25126697.72705  25126702.22805   9231714.38205   7311800.45005     -3731.763
     -2907.853
  21076832.64209  21076835.40809 -13311458.44109 -10209505.97409     -2202.592
     -1716.306
  23299244.31708  23299246.62707 -10088021.62107  -3595587.98507      1331.005
      1037.146
  25155450.92005  25155458.16405  -1371527.38605   -941266.71005      2158.337
      1681.811
  24282096.12506  24282101.67006   5539395.48106   4455425.49606     -4300.845
     -3351.303
  21851688.47109  21851691.36609 -14383470.96609 -11041569.07709      1741.447
      1356.970
 02  5 24  1 23 30.0010000  0  9G04G05G06G07G09G14G24G29G30
  24389080.00906  24389083.12805  -2761042.37805  -2055019.85605       745.678
       581.043
  20772811.32509  20772814.34909 -18213973.53709 -14024266.14309       -10.675
        -8.319
  25418493.73505  25418501.26105  -1037253.92605   -636739.05605      3090.500
      2408.188
  25148017.92405  25148022.80005   9343752.62205   7399102.98805     -3737.369
     -2912.243
  21089446.44409  21089449.16409 -13245172.85709 -10157854.88109     -2216.337
     -1727.015
  23291693.78908  23291696.15707 -10127701.65407  -3626507.49907      1314.426
      1024.227
  25143144.83605  25143149.92405  -1436199.38205   -991660.38305      2153.202
      1677.806
  24306658.28105  24306664.25906   5668475.56206   4556007.24006     -4304.351
     -3354.031
  21841774.62609  21841777.21609 -14435570.00209 -11082165.70609      1731.933
      1349.559
 02  5 24  1 24  0.0010000  0  9G04G05G06G07G09G14G24G29G30
  24384868.66606  24384870.95205  -2783170.77405  -2072262.74005       729.412
       568.372
  20772908.22409  20772911.06109 -18213464.47009 -14023869.45909       -23.367
       -18.208
  25400854.75705  25400860.29005  -1129949.80705   -708969.49405      3089.116
      2407.100
  25169370.21805  25169374.84805   9455956.68505   7486534.66405     -3742.996
     -2916.620
  21102138.32409  21102141.44209 -13178476.51609 -10105883.71609     -2230.185
     -1737.807
  23284237.12608  23284239.36507 -10166884.19307  -3657039.33607      1297.629
      1011.137
  25130867.39205  25130873.24105  -1500717.18105  -1041933.89705      2147.849
      1673.627
  24331241.98705  24331246.89905   5797656.82605   4656667.84705     -4307.832
     -3356.749
  21831914.39909  21831917.11809 -14487384.34009 -11122540.47409      1722.259
      1342.018
 02  5 24  1 24 30.0010000  0  9G04G05G06G07G09G14G24G29G30
  24380751.31906  24380754.58905  -2804808.21005  -2089123.06105       712.844
       555.460
  20773077.84709  20773080.80109 -18212573.23309 -14023174.97709       -36.273
       -28.264
  25383223.04705  25383228.66205  -1222602.52905   -781166.31205      3087.466
      2405.821
  25190753.91505  25190758.95605   9568330.85005   7574098.88205     -3748.788
     -2921.124
  21114909.62909  21114912.80509 -13111363.42909 -10053587.80909     -2244.235
     -1748.754
  23276877.49508  23276879.64007 -10205560.60607  -3687176.78707      1280.563
       997.842
  25118621.79405  25118629.71805  -1565070.96005  -1092079.56905      2142.166
      1669.209
  24355844.22305  24355850.27105   5926943.15505   4757410.38305     -4311.415
     -3359.532
  21822110.07309  21822112.69909 -14538906.67309 -11162687.72309      1712.329
      1334.280
 02  5 24  1 25  0.0010000  0  9G04G05G06G07G09G14G24G29G30
  24376727.87306  24376732.56205  -2825951.95205  -2105598.63005       696.762
       542.937
  20773320.11909  20773323.19009 -18211299.19509 -14022182.21709       -48.659
       -37.916
  25365599.70705  25365606.92805  -1315209.62305   -853327.55605      3086.302
      2404.905
  25212170.61305  25212173.06305   9680873.55405   7661794.44105     -3754.023
     -2925.211
  21127760.00509  21127763.13509 -13043833.74409 -10000967.28309     -2257.739
     -1759.277
  23269614.29608  23269616.99207 -10243728.29707  -3716917.83507      1263.942
       984.894
  25106406.76305  25106412.97505  -1629257.19705  -1142094.74205      2136.897
      1665.118
  24380465.78005  24380470.84405   6056332.28805   4858232.95005     -4314.456
     -3361.910
  21812361.52009  21812364.40309 -14590135.60209 -11202606.33909      1702.928
      1326.956
 02  5 24  1 25 30.0010000  0  9G04G05G06G07G09G14G24G29G30
  24372796.87205  24372799.89605  -2846605.39905  -2121692.17805       680.401
       530.170
  20773634.50009  20773637.58309 -18209647.80309 -14020895.40709       -61.190
       -47.680
  25347985.55105  25347992.64305  -1407774.01305   -925455.47005      3084.893
      2403.824
  25233616.96305  25233621.17104   9793577.39904   7749615.44404     -3759.304
     -2929.326
  21140688.78909  21140691.83709 -12975893.13409  -9948026.56209     -2271.391
     -1769.915
  23262447.57409  23262449.46207 -10281390.62607  -3746265.09107      1247.108
       971.773
  25094224.50605  25094229.21805  -1693278.02905  -1191981.04905      2131.373
      1660.813
  24405105.80105  24405110.65405   6185816.36705   4959129.50005     -4317.523
     -3364.295
  21802667.96809  21802670.59409 -14641075.66109 -11242299.85309      1693.317
      1319.466
 02  5 24  1 26  0.0010000  0  9G04G05G06G07G09G14G24G29G30
  24368959.99005  24368964.53805  -2866768.99005  -2137404.03405       663.623
       517.100
  20774020.10109  20774023.13709 -18207622.02009 -14019316.87409       -74.088
       -57.732
  25330379.12205  25330386.81205  -1500296.43005   -997550.68905      3083.061
      2402.382
  25255093.51505  25255100.34904   9906437.49604   7837558.45304     -3764.896
     -2933.636
  21153694.89009  21153698.00809 -12907544.87709  -9894768.19509     -2285.384
     -1780.818
  23255376.71709  23255378.65108 -10318548.43108  -3775219.22108      1229.834
       958.312
  25082072.65205  25082076.35605  -1757133.22005  -1241738.18005      2125.380
      1656.131
  24429761.86305  24429766.85705   6315390.12005   5060095.99905     -4320.917
     -3366.950
  21793029.05109  21793032.22809 -14691728.85609 -11281769.85009      1683.327
      1311.682
 02  5 24  1 26 30.0010000  0  9G04G05G06G07G09G14G24G29G30
  24365218.07806  24365224.44305  -2886435.00305  -2152728.13905       647.040
       504.174
  20774477.81009  20774480.85709 -18205216.14109 -14017442.15609       -86.706
       -67.563
  25312782.21305  25312790.02005  -1592769.07105  -1069607.13205      3081.389
      2401.080
  25276601.28805  25276608.21605  10019457.65005   7925626.01105     -3770.156
     -2937.781
  21166779.72909  21166782.97609 -12838783.94009  -9841188.24909     -2299.084
     -1791.493
  23248402.81008  23248405.29507 -10355193.71907  -3803773.97307      1212.771
       945.019
  25069955.68905  25069961.22205  -1820813.76605  -1291359.33405      2119.569
      1651.629
  24454436.76505  24454441.67605   6445056.59805   5161134.70105     -4323.943
     -3369.297
  21783445.89009  21783448.82109 -14742088.55309 -11321011.14309      1673.581
      1304.089
 02  5 24  1 27  0.0010000  0  9G04G05G06G07G09G14G24G29G30
  24361570.85306  24361575.69505  -2905599.29405  -2167661.30905       630.522
       491.316
  20775008.21509  20775011.22809 -18202428.45109 -14015269.91709       -99.179
       -77.283
  25295195.82205  25295200.38105  -1685187.74105  -1141621.52605      3079.778
      2399.825
  25298138.50605  25298143.35905  10132637.55605   8013818.11705     -3775.190
     -2941.708
  21179943.14009  21179946.49309 -12769608.94509  -9787285.66409     -2312.620
     -1802.042
  23241528.29108  23241531.18708 -10391322.75908  -3831926.47208      1195.789
       931.783
  25057871.53806  25057875.12505  -1884314.72705  -1340840.49605      2113.766
      1647.094
  24479130.01405  24479135.30106   6574814.82406   5262244.92606     -4326.674
     -3371.437
  21773919.03609  21773922.00109 -14792152.25109 -11360021.78209      1663.956
      1296.588
 02  5 24  1 27 30.0010000  0  9G04G05G06G07G09G14G24G29G30
  24358019.60706  24358023.25205  -2924263.54105  -2182204.83505       613.808
       478.287
  20775610.81309  20775613.86109 -18199262.35909 -14012802.83009      -111.812
       -87.127
  25277618.37705  25277626.40705  -1777553.59805  -1213594.77305      3077.995
      2398.435
  25319704.98805  25319711.65805  10245971.83105   8102130.49305     -3780.315
     -2945.694
  21193185.04609  21193188.23509 -12700023.76209  -9733063.46009     -2326.293
     -1812.695
  23234751.07808  23234753.36308 -10426937.04408  -3859677.83908      1178.581
       918.372
  25045820.54605  25045827.13405  -1947636.37105  -1390181.94705      2107.740
      1642.394
  24503837.29405  24503843.73005   6704659.15605   5363422.16305     -4329.527
     -3373.694
  21764448.02709  21764450.80509 -14841922.42409 -11398803.70909      1654.140
      1288.940
 02  5 24  1 28  0.0010000  0  9G04G05G06G07G09G14G24G29G30
  24354562.60706  24354566.25206  -2942430.39006  -2196360.77506       597.070
       465.248
  20776284.28909  20776287.40709 -18195723.00309 -14010044.88009      -124.382
       -96.921
  25260051.85305  25260059.54205  -1869869.60005  -1285529.18205      3076.165
      2397.001
  25341299.89605  25341302.05305  10359453.23505   8190557.52605     -3785.307
     -2949.593
  21206503.50709  21206506.50809 -12630034.11809  -9678526.08909     -2339.907
     -1823.304
  23228070.97609  23228072.04208 -10462039.61908  -3887030.48508      1161.350
       904.948
  25033804.97105  25033811.52405  -2010780.53805  -1439385.09505      2101.621
      1637.629
  24528562.67505  24528567.82105   6834581.53005   5464660.33905     -4332.239
     -3375.764
  21755032.16909  21755034.99409 -14891403.50809 -11437360.36609      1644.358
      1281.317
 02  5 24  1 28 30.0010000  0  9G04G05G06G07G09G14G24G29G30
  24351202.65907  24351205.64805  -2960089.35605  -2210120.94405       580.232
       452.119
  20777030.33009  20777033.40109 -18191801.80409 -14006989.39509      -136.989
      -106.745
  25242495.09905  25242501.39305  -1962124.83205  -1357416.22205      3074.227
      2395.490
  25362924.14704  25362929.52804  10473088.33504   8279104.27904     -3790.300
     -2953.458
  21219900.73809  21219903.86809 -12559631.82709  -9623667.16709     -2353.532
     -1833.921
  23221490.66008  23221492.45308 -10496619.56208  -3913975.88408      1144.022
       891.446
  25021824.61005  25021832.11205  -2073735.31905  -1488440.66005      2095.392
      1632.758
  24553301.37905  24553308.07305   6964588.27505   5565964.16105     -4334.850
     -3377.796
  21745672.85709  21745675.72909 -14940585.79009 -11475684.19409      1634.507
      1273.640
 02  5 24  1 29  0.0010000  0  9G04G05G06G07G09G14G24G29G30
  24347937.85606  24347940.81005  -2977244.01305  -2223488.17805       563.499
       439.080
  20777848.06009  20777850.99109 -18187504.65309 -14003640.96209      -149.406
      -116.420
  25224951.63705  25224957.13405  -2054322.92405  -1429258.69905      3072.380
      2394.069
  25384576.36105  25384582.01105  10586869.39605   8367764.76905     -3795.019
     -2957.160
  21233375.07109  21233378.28309 -12488823.19409  -9568491.62009     -2366.957
     -1844.382
  23215009.13608  23215011.44508 -10530680.98208  -3940517.23708      1126.821
       878.045
  25009881.86206  25009888.08705  -2136503.54705  -1537350.91005      2089.208
      1627.940
  24578055.17805  24578060.95705   7094670.98805   5667327.17405     -4337.222
     -3379.646
  21736369.82909  21736372.53709 -14989474.45909 -11513779.23309      1624.816
      1266.089
 02  5 24  1 29 30.0010000  0  9G04G05G06G07G09G14G24G29G30
  24344769.52706  24344772.70405  -2993890.35305  -2236459.33505       546.846
       426.110
  20778737.62209  20778740.79909 -18182829.58309 -13999998.04109      -161.668
      -125.975
  25207417.43005  25207422.78705  -2146459.48905  -1501053.36505      3070.636
      2392.708
  25406255.07805  25406259.88405  10700796.52305   8456539.16405     -3799.534
     -2960.662
  21246927.09309  21246930.28109 -12417606.76909  -9512998.31209     -2380.210
     -1854.708
  23208627.05009  23208628.82008 -10564219.65908  -3966651.26108      1109.691
       864.696
  24997973.06406  24997979.12405  -2199079.65805  -1586111.44305      2083.102
      1623.197
  24602824.11106  24602829.76105   7224829.00905   5768748.98605     -4339.394
     -3381.359
  21727123.09509  21727125.77909 -15038066.35809 -11551643.02809      1615.243
      1258.630
 02  5 24  1 30  0.0010000  0  9G04G05G06G07G09G14G24G29G30
  24341698.22506  24341702.53805  -3010028.17905  -2249034.22105       529.273
       412.418
  20779698.91109  20779701.93609 -18177778.50009 -13996062.12409      -174.785
      -136.196
  25189896.57705  25189905.26305  -2238534.37305  -1572799.83805      3067.950
      2390.595
  25427961.96905  25427969.30705  10814865.80805   8545424.19205     -3804.809
     -2964.770
  21260556.39809  21260559.59809 -12345984.92409  -9457189.09309     -2394.300
     -1865.688
  23202343.98108  23202345.72808 -10597235.60408  -3992377.94908      1091.639
       850.629
  24986101.46505  24986107.52505  -2261462.68505  -1634721.45605      2076.035
      1617.685
  24627605.10305  24627612.58205   7355058.04005   5870226.06805     -4342.277
     -3383.594
  21717932.31309  21717934.75109 -15086362.76609 -11589276.55909      1604.799
      1250.492
 02  5 24  1 30 30.0010000  0  9G04G05G06G07G09G14G24G29G30
  24338723.95506  24338728.92505  -3025659.60305  -2261214.54205       512.039
       398.999
  20780731.02209  20780733.97609 -18172355.51309 -13991836.42109      -187.492
      -146.097
  25172386.11605  25172393.34905  -2330549.39005  -1644499.68305      3065.607
      2388.783
  25449694.47905  25449697.62005  10929071.14505   8634415.30305     -3809.624
     -2968.529
  21274261.77009  21274264.73509 -12273962.28109  -9401067.57009     -2407.963
     -1876.336
  23196160.13308  23196162.36007 -10629730.73707  -4017698.81907      1073.947
       836.840
  24974267.01806  24974272.77405  -2323653.31405  -1683181.59705      2069.254
      1612.396
  24652400.73005  24652406.56805   7485351.57305   5971753.26205     -4344.688
     -3385.476
  21708797.56109  21708799.98809 -15134366.91109 -11626682.36109      1594.745
      1242.657
 02  5 24  1 31  0.0010000  0  9G04G05G06G07G09G14G24G29G30
  24335848.83606  24335852.56405  -3040767.51205  -2272986.87405       494.988
       385.699
  20781836.48909  20781839.40809 -18166545.68309 -13987309.27309      -199.984
      -155.832
  25154891.10905  25154897.97805  -2422487.23905  -1716139.45705      3063.393
      2387.051
  25471456.45005  25471460.37705  11043425.79905   8723522.74205     -3814.158
     -2972.083
  21288046.23809  21288049.23909 -12201524.33709  -9344622.43409     -2421.393
     -1886.799
  23190079.37208  23190082.41908 -10661687.98208  -4042600.57608      1056.376
       823.152
  24962472.54506  24962478.23005  -2385633.62805  -1731477.82805      2062.600
      1607.214
  24677208.48105  24677211.84605   7615722.04405   6073340.63105     -4346.823
     -3387.156
  21699721.30309  21699723.44809 -15182062.64209 -11663847.83409      1584.836
      1234.936
 02  5 24  1 31 30.0010000  0  9G04G05G06G07G09G14G24G29G30
  24333071.26406  24333076.03505  -3055364.69705  -2284361.29505       478.026
       372.486
  20783012.82409  20783015.81309 -18160364.03509 -13982492.40009      -212.280
      -165.414
  25137407.40105  25137414.30505  -2514360.66805  -1787729.03005      3061.310
      2385.427
  25493241.73005  25493245.20005  11157912.73905   8812733.22905     -3818.452
     -2975.420
  21301906.86109  21301909.97909 -12128686.72009  -9287865.86609     -2434.601
     -1897.090
  23184097.67609  23184100.43008 -10693120.61908  -4067093.52608      1038.962
       809.581
  24950716.25406  24950721.11905  -2447415.04105  -1779619.09205      2056.013
      1602.104
  24702028.23405  24702033.56705   7746152.03005   6174974.34005     -4348.642
     -3388.542
  21690700.95109  21690703.06109 -15229464.22309 -11700784.11609      1575.128
      1227.371
 02  5 24  1 32  0.0010000  0  9G04G05G06G07G09G14G24G29G30
  24330392.10906  24330396.54005  -3069443.35505  -2295331.65105       460.536
       358.858
  20784260.92809  20784263.99909 -18153804.61309 -13977381.15509      -225.032
      -175.350
  25119938.89706  25119946.04805  -2606161.36005  -1859261.85705      3058.720
      2383.412
  25515054.43005  25515058.86105  11272535.91405   8902049.90705     -3823.103
     -2979.038
  21315844.65009  21315847.66209 -12055444.10109  -9230793.71009     -2448.257
     -1907.732
  23178217.60309  23178219.59508 -10724020.57108  -4091171.38708      1021.010
       795.592
  24938998.72105  24939002.54205  -2508988.34205  -1827598.24805      2048.854
      1596.506
  24726861.47405  24726866.84305   7876644.75505   6276656.80605     -4350.830
     -3390.246
  21681738.08409  21681740.62809 -15276564.85409 -11737485.87509      1564.909
      1219.407
 02  5 24  1 32 30.0010000  0  9G04G05G06G07G09G14G24G29G30
  24327811.58206  24327814.24305  -3083003.56105  -2305897.99805       443.334
       345.448
  20785580.65509  20785583.74909 -18146869.61009 -13971977.24609      -237.455
      -185.030
  25102483.20205  25102488.21905  -2697889.01005  -1930737.81705      3056.328
      2381.552
  25536891.82305  25536896.17205  11387291.58305   8991469.79605     -3827.393
     -2982.383
  21329858.54609  21329861.64009 -11981798.81809  -9173407.78209     -2461.568
     -1918.105
  23172438.92809  23172440.67508 -10754387.94108  -4114834.24908      1003.321
       781.809
  24927321.41005  24927327.31805  -2570352.25405  -1875414.16605      2041.932
      1591.114
  24751703.24605  24751708.27505   8007195.88705   6378384.94605     -4352.672
     -3391.695
  21672832.10009  21672834.46809 -15323365.56509 -11773953.93509      1554.994
      1211.683
 02  5 24  1 33  0.0010000  0  9G04G05G06G07G09G14G24G29G30
  24325331.48806  24325336.75105  -3096038.86405  -2316055.34405       425.563
       331.604
  20786972.71409  20786975.69109 -18139554.26209 -13966276.98209      -250.358
      -195.086
  25085043.46705  25085050.27705  -2789536.88005  -2002151.62305      3053.418
      2379.277
  25558753.89505  25558759.49805  11502182.23005   9080994.89505     -3832.095
     -2986.046
  21343950.25509  21343953.71309 -11907747.05309  -9115705.13109     -2475.343
     -1928.839
  23166762.69409  23166764.75708 -10784216.20808  -4138077.04508       985.090
       767.602
  24915685.29205  24915692.36105  -2631499.46805  -1923061.20005      2034.424
      1585.258
  24776558.17205  24776565.22805   8137807.72605   6480160.24605     -4354.893
     -3393.426
  21663984.44609  21663986.97809 -15369861.06709 -11810184.17509      1544.584
      1203.572
 02  5 24  1 33 30.0010000  0  9G04G05G06G07G09G14G24G29G30
  24322950.75706  24322954.66006  -3108547.99406  -2325802.68706       408.113
       318.007
  20788437.07709  20788440.18409 -18131859.35809 -13960280.94109      -262.877
      -204.838
  25067618.95605  25067624.66405  -2881103.45305  -2073502.01805      3050.775
      2377.230
  25580642.77705  25580646.44605  11617205.15305   9170623.05205     -3836.351
     -2989.377
  21358119.07209  21358122.40109 -11833290.02409  -9057686.67509     -2488.707
     -1939.251
  23161189.53709  23161191.50708 -10813504.37408  -4160898.98508       967.201
       753.664
  24904091.85806  24904098.87905  -2692427.13905  -1970537.21805      2027.177
      1579.612
  24801424.66005  24801429.91105   8268476.49505   6581979.96505     -4356.600
     -3394.735
  21655194.67509  21655197.16009 -15416051.20009 -11846176.45309      1534.517
      1195.727
 02  5 24  1 34  0.0010000  0  9G04G05G06G07G09G14G24G29G30
  24320669.50706  24320673.56305  -3120538.68205  -2335146.04705       391.149
       304.793
  20789971.68909  20789974.79509 -18123794.81109 -13953996.87109      -274.864
      -214.179
  25050208.52405  25050213.03705  -2972596.21705  -2144794.88005      3048.629
      2375.536
  25602554.27705  25602558.49705  11732348.84505   9260345.33505     -3839.983
     -2992.191
  21372362.82909  21372365.81809 -11758438.12109  -8999360.53509     -2501.526
     -1949.240
  23155717.71209  23155719.66908 -10842260.30208  -4183306.18808       949.751
       740.066
  24892538.05906  24892544.56505  -2753141.88005  -2017847.35805      2020.364
      1574.309
  24826296.58804  24826304.92304   8399190.38004   6683834.81504     -4357.712
     -3395.589
  21646461.38909  21646463.87409 -15461944.93509 -11881937.78509      1524.956
      1188.277
 02  5 24  1 34 30.0010000  0  9G04G05G06G07G09G14G24G29G30
  24318488.15606  24318490.93406  -3132001.35806  -2344077.97006       373.329
       290.907
  20791578.11509  20791581.26909 -18115352.73009 -13947418.62809      -287.645
      -224.140
  25032813.81906  25032822.55205  -3064004.91505  -2216022.34205      3045.599
      2373.188
  25624489.62405  25624494.59405  11847619.33205   9350166.41005     -3844.398
     -2995.626
  21386683.35309  21386686.22509 -11683183.65909  -8940720.71409     -2515.135
     -1959.845
  23150348.39309  23150350.62008 -10870474.01608  -4205290.89108       931.453
       725.806
  24881026.24205  24881031.52805  -2813632.86505  -2064983.07905      2012.648
      1568.298
  24851182.78705  24851187.08905   8529954.69505   6785728.99605     -4359.565
     -3397.072
  21637786.24509  21637788.82409 -15507533.32609 -11917461.18509      1514.557
      1180.173
 02  5 24  1 35  0.0010000  0  9G04G05G06G07G09G14G24G29G30
  24316407.39406  24316410.20706  -3142936.25506  -2352598.62906       355.711
       277.181
  20793255.99809  20793259.24509 -18106535.61209 -13940548.13909      -300.123
      -233.862
  25015434.50405  25015440.48205  -3155329.79205  -2287184.42705      3042.772
      2370.988
  25646447.62505  25646453.94305  11963012.29805   9440082.90805     -3848.406
     -2998.744
  21401079.79709  21401082.92709 -11607529.83809  -8881769.70109     -2528.407
     -1970.186
  23145082.50409  23145084.59008 -10898145.92608  -4226853.39708       913.384
       711.727
  24869557.97205  24869563.29405  -2873898.59105  -2111943.27205      2005.096
      1562.404
  24876074.37905  24876081.83505   8660764.50905   6887658.68305     -4361.010
     -3398.169
  21629168.86609  21629171.48009 -15552817.89309 -11952747.84009      1504.442
      1172.291
 02  5 24  1 35 30.0010000  0  9G04G05G06G07G09G14G24G29G30
  24314426.86705  24314431.50905  -3153338.66205  -2360704.37105       337.987
       263.362
  20795005.57309  20795008.76209 -18097340.70809 -13933383.27409      -312.681
      -243.647
  24998073.97706  24998078.59605  -3246565.49405  -2358276.99405      3039.792
      2368.666
  25668430.16405  25668432.78905  12078528.69405   9530095.58005     -3852.478
     -3001.949
  21415552.72509  21415556.38209 -11531474.50709  -8822505.81709     -2541.754
     -1980.587
  23139920.57609  23139922.67408 -10925271.57008  -4247990.24908       895.172
       697.534
  24858133.88106  24858137.86705  -2933933.45505  -2158723.56505      1997.399
      1556.412
  24900974.99705  24900986.12105   8791620.34605   6989624.05105     -4362.473
     -3399.331
  21620609.80209  21620612.80309 -15597795.01809 -11987794.92709      1494.224
      1164.328
 02  5 24  1 36  0.0020000  0  9G04G05G06G07G09G14G24G29G30
  24312547.12105  24312552.77105  -3163217.06505  -2368401.79405       320.215
       249.514
  20796825.54709  20796828.70009 -18087777.31709 -13925931.27809      -325.183
      -253.390
  24980726.29605  24980731.44205  -3337722.59205  -2429308.41805      3036.817
      2366.347
  25690434.71505  25690437.03604  12194160.77504   9620198.34104     -3856.398
     -3004.979
  21430100.20609  21430103.79309 -11455025.48009  -8762935.16709     -2555.008
     -1990.914
  23134861.30609  23134863.45108 -10951859.68208  -4268708.24708       876.973
       683.355
  24846751.86306  24846759.02505  -2993745.81905  -2205330.56005      1989.617
      1550.347
  24925884.69405  24925890.66105   8922514.30405   7091619.37405     -4363.811
     -3400.369
  21612107.72609  21612110.70309 -15642474.98509 -12022610.45709      1484.005
      1156.367
 02  5 24  1 36 30.0020000  0  9G04G05G06G07G09G14G24G29G30
  24310770.47605  24310774.59105  -3172555.87505  -2375678.77505       302.307
       235.568
  20798717.83209  20798720.87909 -18077833.36709 -13918182.74109      -337.794
      -263.216
  24963398.34005  24963406.56905  -3428779.93105  -2500262.04305      3033.612
      2363.847
  25712459.51505  25712465.03604  12309911.77104   9710393.92304     -3860.396
     -3008.122
  21444724.48209  21444727.79909 -11378175.57709  -8703052.14109     -2568.363
     -2001.320
  23129906.83609  23129909.36808 -10977893.89608  -4288994.63508       858.573
       669.019
  24835415.97205  24835420.94205  -3053315.72605  -2251748.54805      1981.630
      1544.114
  24950797.57804  24950801.17705   9053448.08905   7193645.67505     -4365.196
     -3401.447
  21603665.06809  21603667.97509 -15686841.19509 -12057181.51309      1473.669
      1148.313
 02  5 24  1 37  0.0020000  0  9G04G05G06G07G09G14G24G29G30
  24309095.87106  24309098.56705  -3181356.14005  -2382536.07105       284.445
       221.653
  20800681.90209  20800684.77409 -18067511.05209 -13910139.37109      -350.277
      -272.943
  24946089.94806  24946094.97706  -3519740.51806  -2571140.21806      3030.476
      2361.404
  25734509.58105  25734507.67104  12425781.47804   9800681.84104     -3864.170
     -3011.049
  21459424.77809  21459428.20109 -11300924.90309  -8642856.82709     -2581.591
     -2011.630
  23125057.78109  23125060.57008 -11003375.54608  -4308850.45808       840.268
       654.753
  24824125.29706  24824130.08005  -3112643.94805  -2297978.22205      1973.652
      1537.911
  24975723.54105  24975730.22205   9184421.35105   7295702.56005     -4366.278
     -3402.299
  21595281.32509  21595284.40809 -15730896.49809 -12091510.29009      1463.435
      1140.337
 02  5 24  1 37 30.0020000  0  8G04G05G06G09G14G24G29G30
  24307523.00105  24307527.59605  -3189621.64705  -2388976.71005       266.426
       207.605
  20802717.27809  20802720.13809 -18056815.87709 -13901805.46909      -362.874
      -282.759
  24928797.43905  24928803.58105  -3610607.82505  -2641945.76705      3027.186
      2358.845
  21474200.21609  21474203.44009 -11223280.05509  -8582354.36609     -2594.882
     -2021.984
  23120313.52209  23120315.42108 -11028308.47808  -4328278.71408       821.784
       640.353
  24812882.20106  24812887.34705  -3171733.01605  -2344021.58505      1965.469
      1531.534
  25000652.64705  25000659.45805   9315425.80705   7397783.86705     -4367.467
     -3403.234
  21586956.20009  21586959.30609 -15774645.82809 -12125600.65309      1453.034
      1132.234
 02  5 24  1 38  0.0020000  0  8G04G05G06G09G14G24G29G30
  24306051.99905  24306056.93405  -3197349.38705  -2394998.28305       248.403
       193.555
  20804823.74509  20804826.75809 -18045746.84309 -13893180.24209      -375.397
      -292.516
  24911524.44105  24911528.12105  -3701378.39105  -2712675.95005      3023.853
      2356.242
  21489050.63709  21489053.68509 -11145240.20009  -8521544.09809     -2608.112
     -2032.294
  23115674.19109  23115676.19508 -11052689.94908  -4347277.23808       803.295
       625.946
  24801683.76706  24801689.01906  -3230578.69006  -2389875.25206      1957.235
      1525.111
  25025586.18004  25025589.93105   9446460.57205   7499888.86405     -4368.518
     -3404.043
  21578689.66109  21578692.80209 -15818087.01109 -12159450.90109      1442.683
      1124.167
 02  5 24  1 38 30.0020000  0  8G04G05G06G09G14G24G29G30
  24304684.83005  24304690.49105  -3204534.13705  -2400596.77105       230.533
       179.652
  20807001.81309  20807004.74309 -18034300.53809 -13884261.04209      -387.733
      -302.130
  24894270.77506  24894275.55806  -3792046.27306  -2783326.08406      3020.625
      2353.735
  21503976.73909  21503980.10309 -11066802.31509  -8460423.68409     -2621.115
     -2042.426
  23111139.96109  23111142.08208 -11076514.33208  -4365841.69808       784.948
       611.649
  24790533.13005  24790539.35505  -3289174.26805  -2435534.10005      1949.091
      1518.778
  25050529.53305  25050534.87805   9577526.35305   7602017.90305     -4369.270
     -3404.618
  21570482.65809  21570485.31909 -15861215.84309 -12193057.75909      1432.503
      1116.236
 02  5 24  1 39  0.0020000  0  8G04G05G06G09G14G24G29G30
  24303421.24806  24303424.20205  -3211177.50805  -2405773.41005       212.104
       165.267
  20809251.10009  20809254.24109 -18022480.34209 -13875050.49309      -400.532
      -312.103
  24877036.39805  24877043.11505  -3882612.73005  -2853897.15705      3016.873
      2350.803
  21518978.05109  21518981.47409 -10987970.84909  -8398996.58809     -2634.568
     -2052.909
  23106712.15309  23106715.00208 -11099783.37108  -4383973.40508       766.072
       596.936
  24779430.41705  24779436.26605  -3347519.93905  -2480998.15805      1940.355
      1511.964
  25075475.00105  25075480.15905   9708617.37905   7704166.66605     -4370.390
     -3405.501
  21562334.41309  21562336.93309 -15904034.57209 -12226422.98209      1421.824
      1107.913
 02  5 24  1 39 30.0020000  0  8G04G05G06G09G14G24G29G30
  24302260.45506  24302264.72205  -3217278.42905  -2410527.34205       194.380
       151.468
  20811571.43909  20811574.60409 -18010286.97809 -13865549.17309      -412.592
      -321.500
  24859821.75405  24859827.01705  -3973076.01705  -2924387.90105      3013.792
      2348.413
  21534053.93609  21534057.20609 -10908746.89209  -8337263.65309     -2647.260
     -2062.799
  23102390.09309  23102392.05108 -11122496.32308  -4401671.80508       747.876
       582.764
  24768375.86606  24768380.57805  -3405613.01905  -2526265.39505      1932.266
      1505.659
  25100425.97705  25100428.07504   9839730.96504   7806333.09904     -4370.674
     -3405.740
  21554245.09209  21554247.90509 -15946543.20509 -12259546.56709      1411.855
      1100.146
 02  5 24  1 40  0.0020000  0  8G04G05G06G09G14G24G29G30
  24301202.19006  24301206.60905  -3222835.19005  -2414857.25405       176.245
       137.333
  20813962.86309  20813965.93409 -17997720.11509 -13855756.80109      -425.004
      -331.172
  24842627.42506  24842633.37905  -4063433.59405  -2994796.31605      3010.244
      2345.645
  21549204.19209  21549207.38109 -10829130.92109  -8275225.23809     -2660.275
     -2072.942
  23098174.27309  23098176.05508 -11144650.86708  -4418935.06508       729.279
       568.269
  24757369.85605  24757373.57205  -3463450.00505  -2571333.07905      1923.715
      1498.999
  25125378.76005  25125382.91005   9970864.32705   7908514.86805     -4371.325
     -3406.210
  21546215.40009  21546217.86109 -15988740.61009 -12292427.63809      1401.506
      1092.083
 02  5 24  1 40 30.0020000  0  8G04G05G06G09G14G24G29G30
  24300248.04105  24300254.50005  -3227848.62205  -2418763.78205       158.169
       123.243
  20816424.58109  20816427.61709 -17984782.48209 -13845675.52409      -437.291
      -340.746
  24825453.62006  24825459.49306  -4153686.00206  -3065122.65606      3006.784
      2342.945
  21564428.53209  21564431.82609 -10749126.19209  -8212883.91009     -2673.161
     -2082.982
  23094064.29809  23094066.05608 -11166248.12108  -4435764.09608       710.744
       553.827
  24746412.80806  24746417.50905  -3521030.63505  -2616201.08105      1915.196
      1492.364
  25150334.77304  25150339.83705  10102012.74805   8010708.36405     -4371.690
     -3406.511
  21538244.29109  21538246.47109 -16030628.69209 -12325067.68809      1391.256
      1084.096
 02  5 24  1 41  0.0020000  0  8G04G05G06G09G14G24G29G30
  24299399.32705  24299403.71105  -3232312.45305  -2422242.06505       139.732
       108.872
  20818958.03509  20818960.95409 -17971469.40309 -13835301.69609      -449.919
      -350.586
  24808299.24506  24808305.00006  -4243826.12006  -3135361.56306      3002.886
      2339.913
  21579727.72609  21579731.39509 -10668728.68709  -8150236.52509     -2686.345
     -2093.255
  23090061.56809  23090063.85308 -11187281.84208  -4452153.99108       691.822
       539.081
  24735505.50606  24735510.62806  -3578346.75606  -2660862.92506      1906.202
      1485.351
  25175296.81205  25175300.04804  10233178.52704   8112915.42204     -4372.325
     -3406.998
  21530333.29709  21530335.46509 -16072201.79209 -12357462.29009      1380.632
      1075.816
 02  5 24  1 41 30.0020000  0  8G04G05G06G09G14G24G29G30
  24298653.80105  24298659.24005  -3236225.93505  -2425291.52005       121.034
        94.308
  20821562.78509  20821565.90309 -17957781.97609 -13824636.16309      -462.697
      -360.544
  24791168.46306  24791175.02706  -4333852.55906  -3205511.88006      2998.745
      2336.672
  21595101.41109  21595104.45909 -10587940.10109  -8087284.39809     -2699.677
     -2103.644
  23086166.53809  23086169.10508 -11207751.35008  -4468104.25408       672.676
       524.164
  24724648.85305  24724654.33905  -3635396.27305  -2705316.98705      1896.955
      1478.137
  25200258.36505  25200264.73005  10364358.09705   8215133.23105     -4373.075
     -3407.607
  21522481.93509  21522484.10409 -16113459.88509 -12389611.43509      1369.819
      1067.390
 02  5 24  1 42  0.0020000  0  8G04G05G06G09G14G24G29G30
  24298015.44605  24298021.51805  -3239582.66805  -2427907.09105       102.689
        80.025
  20824239.50809  20824242.61409 -17943715.56909 -13813675.32409      -475.113
      -370.217
  24774059.90506  24774064.54705  -4423758.19405  -3275568.09705      2994.899
      2333.678
  21610550.23309  21610553.46809 -10506756.42509  -8024024.40409     -2712.624
     -2113.732
  23082379.89809  23082381.96108 -11227650.09208  -4483609.76608       653.841
       509.485
  24713844.83306  24713850.85805  -3692171.16605  -2749557.06805      1887.965
      1471.152
  25225225.08804  25225224.73605  10495554.27805   8317363.73105     -4373.408
     -3407.838
  21514691.76009  21514694.23409 -16154397.54209 -12421510.88709      1359.320
      1059.210
 02  5 24  1 42 30.0020000  0  8G04G05G06G09G14G24G29G30
  24297480.48905  24297484.54505  -3242393.91705  -2430097.65705        84.466
        65.824
  20826985.93909  20826989.06909 -17929282.98109 -13802429.14609      -487.301
      -379.715
  24756971.62006  24756977.16405  -4513553.74105  -3345538.47605      2991.214
      2330.805
  21626071.64309  21626075.12409 -10425190.97709  -7960466.92609     -2725.309
     -2123.617
  23078699.88409  23078701.46608 -11246989.31108  -4498679.28408       635.185
       494.950
  24703091.63506  24703095.57405  -3748681.10105  -2793590.73705      1879.101
      1464.214
  25250191.21405  25250196.10205  10626751.41105   8419595.34005     -4373.327
     -3407.815
  21506960.30509  21506962.67309 -16195026.60409 -12453169.87409      1349.036
      1051.195
 02  5 24  1 43  0.0020000  0  8G04G05G06G09G14G24G29G30
  24297051.18205  24297055.07405  -3244648.80605  -2431854.67205        65.968
        51.402
  20829803.80909  20829806.92709 -17914475.06509 -13790890.50709      -499.757
      -389.422
  24739907.87306  24739912.25806  -4603227.66606  -3415414.10406      2987.180
      2327.664
  21641667.15709  21641670.66209 -10343235.24909  -7896605.33609     -2738.260
     -2133.709
  23075128.23109  23075131.03308 -11265758.21008  -4513304.39708       616.202
       480.157
  24692390.96906  24692395.57605  -3804913.40605  -2837408.08305      1869.824
      1457.010
  25275157.37804  25275164.58704  10757956.64904   8521833.29004     -4373.573
     -3407.954
  21499289.54609  21499291.71509 -16235337.07209 -12484580.61809      1338.464
      1042.958
 02  5 24  1 43 30.0020000  0  8G04G05G06G09G14G24G29G30
  24296727.35105  24296731.54706  -3246351.00906  -2433181.04806        47.497
        37.008
  20832692.19009  20832695.02709 -17899297.01009 -13779063.44509      -512.098
      -399.038
  24722865.36606  24722870.64106  -4692782.56106  -3485196.97806      2983.147
      2324.519
  21657336.03609  21657339.14309 -10260894.90209  -7832444.03109     -2751.077
     -2143.695
  23071664.53909  23071667.28108 -11283960.15808  -4527487.72208       597.274
       465.407
  24681742.38206  24681748.04305  -3860869.66505  -2881010.24305      1860.583
      1449.799
  25300124.23605  25300129.97905  10889162.64605   8624071.49505     -4373.533
     -3407.967
  21491678.43109  21491680.77509 -16275333.06609 -12515746.30309      1327.940
      1034.758
 02  5 24  1 44  0.0020000  0  8G04G05G06G09G14G24G29G30
  24296508.57805  24296512.80905  -3247496.67105  -2434073.70205        29.087
        22.673
  20835651.43309  20835654.25809 -17883746.68409 -13766946.30009      -524.364
      -408.597
  24705847.63106  24705852.89406  -4782214.02706  -3554883.74906      2979.161
      2321.417
  21673078.35909  21673081.86409 -10178168.55809  -7767981.95909     -2763.786
     -2153.598
  23068309.08509  23068310.94908 -11301591.53408  -4541226.45208       578.372
       450.682
  24671147.89106  24671153.07205  -3916545.17005  -2924393.71305      1851.309
      1442.569
  25325092.86505  25325098.63205  11020369.08005   8726310.14405     -4373.334
     -3407.784
  21484128.07309  21484130.35909 -16315011.58509 -12546664.61309      1317.493
      1026.618
 02  5 24  1 44 30.0020000  0  8G04G05G06G09G14G24G29G30
  24296396.89905  24296401.62305  -3248086.01805  -2434532.92305        10.262
         7.990
  20838680.78309  20838683.86609 -17867825.83409 -13754540.43809      -536.978
      -418.424
  24688853.32806  24688857.79506  -4871521.36606  -3624473.72306      2974.705
      2317.938
  21688893.78209  21688896.73609 -10095058.51109  -7703220.90309     -2776.827
     -2163.760
  23065062.54409  23065065.13508 -11318652.48708  -4554520.69708       559.068
       435.636
  24660606.53705  24660612.89005  -3971938.17505  -2967557.02305      1841.584
      1435.000
  25350059.32204  25350067.66804  11151571.86104   8828546.13304     -4373.452
     -3407.889
  21476637.54309  21476639.79409 -16354373.42809 -12577336.16809      1306.674
      1018.186
 02  5 24  1 45  0.0020000  0  8G04G05G06G09G14G24G29G30
  24296391.42105  24296395.65306  -3248113.65606  -2434554.44806        -8.394
        -6.534
  20841781.67909  20841784.70309 -17851530.54009 -13741842.79909      -549.357
      -428.070
  24671882.41006  24671887.49806  -4960698.43106  -3693962.17406      2970.436
      2314.628
  21704782.63109  21704785.58509 -10011561.58009  -7638158.36409     -2789.610
     -2173.721
  23061925.82809  23061927.69108 -11335137.62608  -4567366.24808       539.951
       420.737
  24650121.12206  24650126.37305  -4027041.65205  -3010494.75605      1831.976
      1427.512
  25375026.64205          .00001  11282772.76201          .00011     -4373.232
          .000
  21469208.27809  21469210.55209 -16393413.88009 -12607757.27109      1296.047
      1009.906
 02  5 24  1 45 30.0020000  0  8G04G05G06G09G14G24G29G30
  24296492.82606  24296495.08905  -3247583.21005  -2434141.05905       -27.306
       -21.272
  20844952.90009  20844955.93609 -17834866.02209 -13728857.45909      -561.950
      -437.882
  24654937.31306  24654942.21306  -5049747.75006  -3763351.14306      2965.850
      2311.047
  21720744.05509  21720747.50209  -9927683.55309  -7572798.87609     -2802.591
     -2183.836
  23058897.70309  23058900.55208 -11351050.27508  -4579765.72308       520.552
       405.626
  24639689.91106  24639695.38505  -4081857.20005  -3053208.08605      1822.048
      1419.769
  25399992.46305          .00001  11413963.98901          .00011     -4373.185
          .000
  21461839.58409  21461842.25709 -16432137.03209 -12637931.14309      1285.171
      1001.431
 02  5 24  1 46  0.0020000  0  8G04G05G06G09G14G24G29G30
  24296700.40606  24296704.49705  -3246492.45105  -2433291.09605       -45.739
       -35.647
  20848194.48809  20848197.61809 -17817831.57909 -13715583.86509      -574.015
      -447.284
  24638015.88606  24638021.92206  -5138666.45206  -3832638.29106      2961.711
      2307.816
  21736777.98809  21736781.31709  -9843424.57309  -7507142.54309     -2815.005
     -2193.510
  23055979.00709  23055980.53109 -11366388.27509  -4591717.40409       501.633
       390.885
  24629314.63106  24629320.44505  -4136381.08305  -3095694.18205      1812.533
      1412.361
  25424952.36704          .00001  11545144.50101          .00011     -4372.496
          .000
  21454531.39509  21454534.24409 -16470541.42809 -12667856.62909      1274.796
       993.346
 02  5 24  1 46 30.0020000  0  8G04G05G06G09G14G24G29G30
  24297014.32905  24297015.77105  -3244841.26605  -2432004.45905       -64.480
       -50.252
  20851506.10609  20851509.23609 -17800428.65009 -13702023.13709      -586.341
      -456.889
  24621120.72706  24621126.04905  -5227453.50905  -3901822.86705      2957.240
      2304.330
  21752884.10709  21752887.57709  -9758786.48509  -7441190.79709     -2827.684
     -2203.389
  23053169.69509  23053171.32508 -11381151.59008  -4603221.29308       482.409
       375.900
  24618994.89806  24619000.40806  -4190611.48706  -3137951.58206      1802.641
      1404.656
  25449915.70105          .00001  11676310.29501          .00011     -4372.016
          .000
  21447283.95009  21447286.67009 -16508627.33409 -12697533.93409      1264.101
       985.015
 02  5 24  1 47  0.0020000  0  8G04G05G06G09G14G24G29G30
  24297435.45106  24297438.31105  -3242628.40805  -2430280.11905       -83.218
       -64.844
  20854887.80209  20854890.86109 -17782657.44109 -13688175.43609      -598.575
      -466.422
  24604249.48006  24604254.29806  -5316106.87906  -3970903.30606      2952.787
      2300.871
  21769062.32509  21769065.43209  -9673770.23509  -7374944.38809     -2840.234
     -2213.169
  23050469.72009  23050472.47509 -11395338.97209  -4614276.37809       463.223
       360.953
  24608731.06106  24608736.11305  -4244545.04205  -3179977.66405      1792.736
      1396.942
  25474869.39104          .00001  11807458.92701          .00011     -4371.359
          .000
  21440097.00009  21440099.71909 -16546394.27309 -12726962.69609      1253.504
       976.757
 02  5 24  1 47 30.0020000  0  8G04G05G06G09G14G24G29G30
  24297964.28706  24297967.48705  -3239850.52605  -2428115.54805      -101.986
       -79.484
  20858340.10209  20858342.93909 -17764516.10609 -13674039.32809      -610.852
      -475.988
  24587406.54606  24587411.53906  -5404622.08806  -4039876.04206      2948.207
      2297.290
  21785312.48809  21785315.70009  -9588374.69009  -7308402.41709     -2852.810
     -2222.969
  23047880.45609  23047882.37808 -11408946.98008  -4624880.02508       443.947
       345.934
  24598524.86606  24598530.25805  -4298176.91605  -3221768.69805      1782.706
      1389.118
  25499826.28805          .00001     21848.45401          .00011     -4370.669
          .000
  21432971.49209  21432974.41109 -16583839.37009 -12756140.67609      1242.824
       968.435
 02  5 24  1 48  0.0020000  0  8G04G05G06G09G14G24G29G30
  24298600.13406  24298601.91606  -3236510.15806  -2425512.64506      -120.866
       -94.175
  20861861.90009  20861864.74809 -17746008.52309 -13659617.82909      -623.149
      -485.570
  24570588.23306  24570593.64806  -5493000.72106  -4108742.39406      2943.533
      2293.655
  21801634.07409  21801637.40309  -9502604.30809  -7241568.36809     -2865.380
     -2232.763
  23045400.62509  23045402.71208 -11421977.87408  -4635033.96508       424.613
       330.868
  24588376.97406  24588383.65505  -4351507.81605  -3263325.17405      1772.513
      1381.178
  25524774.06405          .00001    152956.14401          .00011     -4369.937
          .000
  21425906.61109  21425909.21309 -16620965.56409 -12785070.16309      1232.094
       960.073
 02  5 24  1 48 30.0020000  0  8G04G05G06G09G14G24G29G30
  24299344.89906  24299346.64606  -3232598.00306  -2422464.18406      -139.821
      -108.950
  20865454.97509  20865457.80009 -17727126.94409 -13644904.90409      -635.499
      -495.195
  24553797.89906  24553802.54106  -5581232.64906  -4177494.39606      2938.723
      2289.916
  21818028.26009  21818031.88209  -9416451.94009  -7174436.66609     -2877.988
     -2242.588
  23043032.45909  23043034.03008 -11434422.59408  -4644731.13808       405.162
       315.710
  24578287.68506  24578292.33805  -4404526.43705  -3304638.33305      1762.147
      1373.103
  25549718.62303          .00001    284046.17301          .00011     -4369.276
          .000
  21418904.05709  21418906.67109 -16657764.13709 -12813744.35909      1221.274
       951.641
 02  5 24  1 49  0.0020000  0  8G04G05G06G09G14G24G29G30
  24300195.81106  24300197.34706  -3228124.89006  -2418978.62506      -158.451
      -123.462
  20869116.88209  20869119.67209 -17707883.42109 -13629909.94809      -647.477
      -504.528
  24537033.81306  24537039.14706  -5669327.50406  -4246139.61106      2934.185
      2286.384
  21834492.96109  21834496.33709  -9329930.22709  -7107017.16909     -2890.198
     -2252.100
  23040773.80809  23040776.10608 -11446291.71408  -4653979.80308       386.040
       300.811
  24568256.77806  24568261.92405  -4457241.65505  -3345715.05205      1752.085
      1365.269
  25574660.08705          .00001    415103.68901          .00011     -4368.007
          .000
  21411961.84209  21411964.43309 -16694246.30709 -12842172.00509      1210.778
       943.462
 02  5 24  1 49 30.0020000  0  8G04G05G06G09G14G24G29G30
  24301154.87006  24301158.32806  -3223083.45106  -2415050.23206      -177.684
      -138.459
  20872848.79809  20872851.55309 -17688271.97209 -13614628.29709      -660.014
      -514.297
  24520298.05206  24520304.79306  -5757276.91406  -4314671.43906      2929.045
      2282.363
  21851028.60609  21851031.81809  -9243033.95709  -7039305.80209     -2902.944
     -2262.035
  23038626.05409  23038628.31608 -11457577.80508  -4662774.16608       366.296
       285.425
  24558284.35206  24558289.15906  -4509644.61906  -3386548.48406      1741.359
      1356.915
  25599593.29205  25599608.02704    546132.63704          .00014     -4367.258
     -3403.064
  21405080.98709  21405083.56609 -16730405.10309 -12870347.67509      1199.716
       934.844
 02  5 24  1 50  0.0020000  0  7G04G05G06G09G14G24G30
  24302223.17106  24302224.49506  -3217469.73206  -2410675.90306      -196.457
      -153.089
  20876651.19409  20876654.08909 -17668289.98209 -13599057.90909      -672.007
      -523.642
  24503590.90806  24503595.32706  -5845075.89806  -4383086.14106      2924.313
      2278.679
  21867635.96709  21867638.78009  -9155761.28709  -6971301.13309     -2915.120
     -2271.522
  23036590.46909  23036592.68508 -11468276.76408  -4671111.00708       347.056
       270.432
  24548372.76506  24548379.30605  -4561729.41005  -3427133.98705      1731.061
      1348.868
  21398262.36409  21398264.77909 -16766236.89309 -12898268.53009      1189.169
       926.624
 02  5 24  1 50 30.0020000  0  7G04G05G06G09G14G24G30
  24303399.47206  24303401.51206  -3211291.88506  -2405861.96506      -215.422
      -167.864
  20880522.28809  20880525.19509 -17647947.34409 -13583206.49909      -684.191
      -533.137
  24486910.50406  24486916.64606  -5932731.85206  -4451389.35506      2919.353
      2274.816
  21884313.09909  21884316.27609  -9068122.64809  -6903011.29109     -2927.468
     -2281.144
  23034664.16709  23034666.31208 -11478396.89308  -4678996.80808       327.590
       255.267
  24538521.07806  24538527.98205  -4613502.52105  -3467476.61905      1720.448
      1340.601
  21391504.34409  21391506.64209 -16801750.58609 -12925941.52009      1178.394
       918.229
 02  5 24  1 51  0.0020000  0  7G04G05G06G09G14G24G30
  24304683.84406  24304685.33306  -3204541.84406  -2400602.16806      -234.708
      -182.886
  20884463.42109  20884466.34009 -17627236.68309 -13567068.32109      -696.640
      -542.836
  24470258.13106  24470264.28506  -6020235.29106  -4519573.71506      2914.061
      2270.694
  21901061.13409  21901064.69709  -8980111.55909  -6834431.24009     -2940.055
     -2290.951
  23032850.18709  23032852.35508 -11487930.01708  -4686425.22508       307.809
       239.854
  24528729.90406  24528735.51905  -4664953.14205  -3507567.95005      1709.463
      1332.043
  21384808.52309  21384810.66809 -16836938.11109 -12953360.35209      1167.311
       909.592
 02  5 24  1 51 30.0020000  0  7G04G05G06G09G14G24G30
  24306077.77606  24306081.25706  -3197215.40806  -2394893.24106      -253.706
      -197.701
  20888474.92009  20888477.95609 -17606155.42609 -13550641.36109      -708.738
      -552.263
  24453636.27006  24453641.55706  -6107581.25706  -4587635.37506      2909.029
      2266.772
  21917880.33009  21917883.72909  -8891726.09509  -6765559.46009     -2952.280
     -2300.476
  23031148.94909  23031150.54308 -11496871.94208  -4693392.96308       288.328
       224.672
  24519001.19206  24519006.61906  -4716075.79806  -3547403.73306      1698.733
      1323.698
  21378175.04209  21378177.52709 -16871796.01609 -12980522.34309      1156.578
       901.229
 02  5 24  1 52  0.0020000  0  7G04G05G06G09G14G24G30
  24307580.81806  24307583.90006  -3189315.40606  -2388737.38406      -272.989
      -212.717
  20892556.34909  20892559.38509 -17584707.79809 -13533928.92109      -721.103
      -561.899
  24437044.73406  24437050.65406  -6194771.31706  -4655575.54606      2903.633
      2262.565
  21934769.94409  21934773.15609  -8802970.90709  -6696399.59709     -2964.731
     -2310.180
  23029559.32009  23029560.91409 -11505225.45509  -4699902.19209       268.548
       209.259
  24509335.76506  24509341.11006  -4766871.27506  -3586984.57806      1687.610
      1315.023
  21371604.07109  21371606.26309 -16906327.19809 -13007429.73909      1145.507
       892.602
 02  5 24  1 52 30.0020000  0  7G04G05G06G09G14G24G30
  24309194.06505  24309197.42906  -3180835.99106  -2382130.04206      -292.126
      -227.625
  20896708.39009  20896711.50809 -17562888.88709 -13516927.17009      -733.285
      -571.391
  24420484.10806  24420489.89906  -6281798.31706  -4723388.68806      2898.350
      2258.449
  21951730.63409  21951733.96309  -8713842.10609  -6626948.58809     -2976.990
     -2319.733
  23028082.67609  23028084.83309 -11512984.51409  -4705948.21709       248.906
       193.951
  24499733.64806  24499739.74406  -4817331.64106  -3626304.30406      1676.585
      1306.422
  21365096.40709  21365098.44609 -16940526.22109 -13034078.31809      1134.594
       884.098
 02  5 24  1 53  0.0020000  0  7G04G05G06G09G14G24G30
  24310917.76606  24310921.22406  -3171778.73906  -2375072.44506      -311.525
      -242.752
  20900930.46409  20900933.50009 -17540701.51209 -13499638.30309      -745.682
      -581.051
  24403954.29106  24403959.27306  -6368662.51306  -4791074.95706      2892.784
      2254.106
  21968761.68909  21968765.38109  -8624343.20609  -6557209.20809     -2989.417
     -2329.415
  23026718.87409  23026721.25409 -11520150.52709  -4711532.11709       229.007
       178.452
  24490194.80906  24490200.75206  -4867456.58506  -3665362.66506      1665.253
      1297.606
  21358651.20909  21358653.43709 -16974394.87009 -13060469.45409      1123.477
       875.436
 02  5 24  1 53 30.0020000  0  7G04G05G06G09G14G24G30
  24312750.93706  24312755.18006  -3162145.19106  -2367565.80706      -330.757
      -257.732
  20905222.22709  20905225.22809 -17518148.58109 -13482064.58509      -757.871
      -590.550
  24387454.95306  24387459.67706  -6455364.70106  -4858634.97306      2887.336
      2249.868
  21985862.55409  21985865.98909  -8534477.91309  -6487184.31009     -3001.622
     -2338.927
  23025467.63509  23025469.87409 -11526725.19409  -4716655.23809       209.275
       163.070
  24480720.46006  24480725.21906  -4917245.55406  -3704159.22306      1653.992
      1288.828
  21352268.61809  21352270.65809 -17007935.20209 -13086604.76109      1112.516
       866.895
 02  5 24  1 54  0.0020000  0  7G04G05G06G09G14G24G30
  24314694.00106  24314696.62706  -3151933.61206  -2359608.70506      -350.105
      -272.804
  20909583.60409  20909586.64009 -17495229.34809 -13464205.43809      -770.141
      -600.111
  24370988.06506  24370993.41006  -6541901.57506  -4926066.19006      2881.699
      2245.485
  22003033.00609  22003036.03009  -8444246.35309  -6416874.02709     -3013.882
     -2348.478
  23024329.59209  23024331.71409 -11532706.58109  -4721316.06209       189.409
       147.592
  24471310.46407  24471315.61006  -4966695.07106  -3742691.28706      1642.561
      1279.913
  21345948.86309  21345951.00809 -17041145.44809 -13112482.86109      1101.438
       858.261
 02  5 24  1 54 30.0020000  0  7G04G05G06G09G14G24G30
  24316748.23706  24316751.34306  -3141140.43306  -2351198.44806      -369.349
      -287.805
  20914015.05409  20914018.07909 -17471941.53909 -13446059.09309      -782.270
      -609.562
  24354552.34406  24354556.69306  -6628268.49606  -4993364.95006      2876.195
      2241.184
  22020273.50509  22020276.41209  -8353646.75009  -6346276.94809     -3025.977
     -2357.904
  23023304.89609  23023306.78309 -11538091.00709  -4725511.71109       169.662
       132.203
  24461966.49506  24461971.61706  -5015799.27806  -3780954.24206      1631.156
      1271.034
  21339692.70809  21339695.09909 -17074022.28609 -13138101.16309      1090.474
       849.719
 02  5 24  1 55  0.0020000  0  7G04G05G06G09G14G24G30
  24318912.39706  24318916.43006  -3129764.37606  -2342333.97906      -388.834
      -302.984
  20918516.79309  20918519.71109 -17448285.09009 -13427625.49009      -794.607
      -619.174
  24338150.42806  24338155.73806  -6714462.87306  -5060529.29806      2870.324
      2236.614
  22037583.81309  22037587.07109  -8262679.79709  -6275393.62409     -3038.264
     -2367.478
  23022394.25809  23022396.50909 -11542877.23609  -4729241.24409       149.642
       116.603
  24452688.08806  24452694.12506  -5064554.74806  -3818945.50606      1619.418
      1261.880
  21333499.97909  21333502.44009 -17106564.79909 -13163458.94609      1079.248
       840.972
 02  5 24  1 55 30.0020000  0  7G04G05G06G09G14G24G30
  24321188.23606  24321191.44806  -3117808.98206  -2333018.05506      -408.047
      -317.958
  20923087.55109  20923090.63409 -17424264.59509 -13408908.22109      -806.623
      -628.538
  24321780.04806  24321785.39306  -6800486.93806  -5127560.92106      2864.725
      2232.244
  22054963.35909  22054967.32209  -8171350.70309  -6204228.10909     -3050.202
     -2376.781
  23021596.37909  23021598.14909 -11547068.62009  -4732507.24109       129.911
       101.227
  24443476.26607  24443482.15106  -5112963.07106  -3856666.24406      1607.921
      1252.923
  21327370.12409  21327372.79709 -17138776.60109 -13188559.03509      1068.341
       832.472
 02  5 24  1 56  0.0020000  0  7G04G05G06G09G14G24G30
  24323573.46706  24323577.11206  -3105270.69406  -2323247.96306      -427.671
      -333.251
  20927728.45709  20927731.61109 -17399877.61509 -13389905.37409      -819.019
      -638.197
  24305443.35006  24305446.71406  -6886335.78106  -5194455.99806      2858.670
      2227.538
  22072411.93309  22072415.87109  -8079657.95809  -6132779.22509     -3062.488
     -2386.354
  23020912.72809  23020914.32209 -11550661.63909  -4735306.99609       109.758
        85.526
  24434331.81407  24434337.20606  -5161018.65506  -3894112.09706      1595.939
      1243.590
  21321304.01909  21321306.42209 -17170654.26209 -13213398.75409      1056.985
       823.624
 02  5 24  1 56 30.0020000  0  7G04G05G06G09G14G24G30
  24326071.36006  24326075.25206  -3092144.18406  -2313019.48206      -447.142
      -348.426
  20932439.57609  20932442.53009 -17375119.99809 -13370613.71809      -831.228
      -647.711
  24289141.65006  24289146.85406  -6972002.90306  -5261209.48306      2852.711
      2222.890
  22089930.36509  22089933.96309  -7987597.92109  -6061044.14009     -3074.575
     -2395.772
  23020343.79109  23020346.15909 -11553650.92409  -4737636.31009        89.760
        69.946
  24425255.18006  24425261.10006  -5208714.25406  -3931277.46706      1584.007
      1234.297
  21315302.51909  21315305.14509 -17202192.74209 -13237974.17609      1045.836
       814.937
 02  5 24  1 57  0.0020000  0  7G04G05G06G09G14G24G30
  24328680.07606  24328685.03406  -3078436.02206  -2302337.82306      -466.824
      -363.755
  20937219.91809  20937222.81309 -17349999.10509 -13351038.99709      -843.605
      -657.355
  24272873.13606  24272878.23506  -7057493.33406  -5327825.28506      2846.539
      2218.071
  22107516.93709  22107520.48909  -7895178.77609  -5989029.23409     -3086.805
     -2405.302
  23019889.02409  23019891.09809 -11556042.70409  -4739500.03009        69.567
        54.210
  24416246.78207  24416250.77906  -5256053.69606  -3968165.31706      1571.818
      1224.785
  21309364.33509  21309366.84409 -17233398.54409 -13262290.37809      1034.452
       806.066
 02  5 24  1 57 30.0020000  0  7G04G05G06G09G14G24G30
  24331400.37506  24331404.17306  -3064140.89806  -2291198.76506      -486.012
      -378.716
  20942070.25809  20942073.43509 -17324510.48209 -13331177.72709      -855.455
      -666.589
  24256639.80506  24256644.71706  -7142800.43606  -5394298.25106      2840.776
      2213.586
  22125172.86309  22125176.06309  -7802396.97109  -5916731.73809     -3098.468
     -2414.391
  23019548.44709  23019550.54509 -11557831.63709  -4740894.00209        49.864
        38.854
  24407307.92107  24407313.05506  -5303029.73306  -4004769.97506      1560.069
      1215.632
  21303490.39809  21303492.76609 -17264266.41109 -13286343.24309      1023.584
       797.598
 02  5 24  1 58  0.0020000  0  7G04G05G06G09G14G24G30
  24334230.50206  24334234.11206  -3049267.43906  -2279609.04606      -505.539
      -393.931
  20946988.61909  20946991.74909 -17298663.99609 -13311037.60509      -867.617
      -676.066
  24240439.80506  24240444.71706  -7227931.54306  -5460634.09506      2834.638
      2208.808
  22142895.71009  22142898.85209  -7709263.28809  -5844160.05409     -3110.423
     -2423.706
  23019321.27409  23019322.99709 -11559026.42109  -4741824.99609        29.806
        23.224
  24398436.93807  24398441.35806  -5349649.13806  -4041096.77706      1547.891
      1206.147
  21297678.96509  21297681.29709 -17294805.21109 -13310139.70209      1012.349
       788.842
 02  5 24  1 58 30.0020000  0  7G04G05G06G09G14G24G30
  24337173.33306  24337178.05706  -3033804.76806  -2267560.21806      -525.249
      -409.281
  20951976.92709  20951980.02209 -17272449.93909 -13290611.06609      -879.926
      -685.657
  24224275.47706  24224280.98706  -7312874.38406  -5526823.19606      2828.255
      2203.825
  22160687.18809  22160690.57609  -7615768.35109  -5771306.87109     -3122.493
     -2433.110
  23019209.05309  23019210.79909 -11559616.01609  -4742284.42409         9.561
         7.448
  24389635.66607  24389641.04606  -5395898.87106  -4077135.51606      1535.480
      1196.477
  21291932.34809  21291934.70409 -17325003.96809 -13333671.18509      1000.956
       779.965
 02  5 24  1 59  0.0020000  0  7G04G05G06G09G14G24G30
  24340227.45406  24340231.62706  -3017753.79006  -2255052.94906      -544.838
      -424.548
  20957034.96209  20957037.83409 -17245870.32909 -13269899.67909      -892.092
      -695.138
  24208147.49607  24208152.13806  -7397628.67306  -5592865.39806      2821.959
      2198.927
  22178546.84209  22178550.33509  -7521915.11809  -5698174.48909     -3134.414
     -2442.400
  23019211.50409  23019213.26209 -11559601.54809  -4742273.14809       -10.576
        -8.243
  24380905.17107  24380910.96106  -5441777.87906  -4112885.32406      1523.071
      1186.807
  21286250.33609  21286252.50509 -17354864.04309 -13356938.76409       989.669
       771.170
 02  5 24  1 59 30.0020000  0  7G04G05G06G09G14G24G30
  24343394.31506  24343398.61706  -3001113.33706  -2242086.35706      -564.467
      -439.842
  20962162.55309  20962165.44809 -17218924.50509 -13248902.93009      -904.233
      -704.598
  24192055.32106  24192061.24106  -7482191.38806  -5658758.32206      2815.600
      2193.967
  22196474.85909  22196478.02409  -7427703.74909  -5624763.04609     -3146.269
     -2451.638
  23019329.66909  23019332.00109 -11558981.31209  -4741789.84409       -30.723
       -23.942
  24372245.59007  24372250.61806  -5487282.28506  -4148343.28406      1510.594
      1177.075
  21280632.72609  21280635.09409 -17384383.84809 -13379941.19909       978.387
       762.379
 02  5 24  2  0  0.0020000  0  7G04G05G06G09G14G24G30
  24346672.02506  24346675.72906  -2983886.32506  -2228662.71906      -583.931
      -455.013
  20967359.15009  20967362.26909 -17191616.34209 -13227623.84009      -916.231
      -713.946
  24175999.97107  24176005.43306  -7566564.05506  -5724503.14406      2809.318
      2189.073
  22214469.84209  22214472.78409  -7333138.97109  -5551076.23009     -3157.959
     -2460.745
  23019562.78809  23019564.89809 -11557758.28709  -4740836.83409       -50.739
       -39.538
  24363657.43907  24363663.19506  -5532413.34706  -4183510.32006      1498.187
      1167.428
  21275079.46409  21275081.83209 -17413566.43209 -13402680.85609       967.208
       753.667
 02  5 24  2  0 30.0020000  0  7G04G05G06G09G14G24G30
  24350061.96606  24350066.67906  -2966071.29606  -2214780.89006      -603.755
      -470.459
  20972624.70109  20972627.97109 -17163945.05509 -13206061.79909      -928.525
      -723.526
  24159980.89007  24159984.41807  -7650743.48607  -5790097.40607      2802.640
      2183.869
  22232532.16309  22232535.49209  -7238220.84609  -5477114.07609     -3169.912
     -2470.059
  23019910.06509  23019911.71809 -11555930.82309  -4739412.82509       -71.101
       -55.403
  24355140.96007  24355146.95006  -5577166.96806  -4218383.25006      1485.355
      1157.423
  21269590.64409  21269592.96509 -17442410.01309 -13425156.36609       955.692
       744.696
 02  5 24  2  1  0.0020000  0  7G04G05G06G09G14G24G30
  24353565.26206  24353571.32206  -2947665.29706  -2200438.55106      -623.165
      -485.576
  20977959.82409  20977962.90709 -17135908.98609 -13184215.51109      -940.393
      -732.773
  24143999.84207  24144005.12807  -7734725.67307  -5855537.96807      2796.317
      2178.941
  22250661.92709  22250665.50209  -7142948.53909  -5402875.92609     -3181.417
     -2479.027
  23020373.43309  23020375.37909 -11553496.19509  -4737515.71109       -91.069
       -70.963
  24346697.69007  24346702.36706  -5621538.07706  -4252958.12706      1472.830
      1147.660
  21264166.93009  21264169.33309 -17470911.99609 -13447365.68709       944.588
       736.043
 02  5 24  2  1 30.0020000  0  7G04G05G06G09G14G24G30
  24357180.20606  24357184.00406  -2928667.24806  -2185634.88206      -643.034
      -501.064
  20983364.47409  20983367.61609 -17107507.55409 -13162084.52609      -952.689
      -742.356
  24128056.52407  24128061.25907  -7818507.50707  -5920822.42107      2789.470
      2173.613
  22268858.94709  22268862.11209  -7047322.29509  -5328361.98809     -3193.320
     -2488.301
  23020952.68009  23020955.25909 -11550452.99609  -4735144.38409      -111.486
       -86.876
  24338327.92407  24338332.36706  -5665523.29506  -4287232.29006      1459.825
      1137.523
  21258808.56109  21258811.02309 -17499071.00109 -13469307.75809       933.016
       727.024
 02  5 24  2  2  0.0020000  0  7G04G05G06G09G14G24G30
  24360907.45106  24360910.24006  -2909082.22306  -2170373.79106      -662.769
      -516.446
  20988837.55009  20988840.91409 -17078746.95509 -13139673.66509      -964.820
      -751.807
  24112150.46606  24112156.29206  -7902092.75206  -5985953.67906      2782.747
      2168.373
  22287122.12709  22287125.09309  -6951348.84109  -5253577.49309     -3205.032
     -2497.428
  23021646.49609  23021648.27809 -11546806.28109  -4732302.77609      -131.781
      -102.686
  24330030.28907  24330034.95407  -5709125.65907  -4321208.15507      1446.870
      1127.431
  21253514.36809  21253516.54809 -17526892.00509 -13490986.44809       921.591
       718.121
 02  5 24  2  2 30.0020000  0  7G04G05G06G09G14G24G30
  24364745.56106  24364749.30106  -2888910.35106  -2154655.45706      -682.070
      -531.483
  20994378.64609  20994381.79909 -17049627.90409 -13116983.49509      -976.484
      -760.897
  24096282.53907  24096287.92007  -7985479.97007  -6050930.62507      2776.363
      2163.393
  22305450.87109  22305453.98909  -6855029.94409  -5178523.82909     -3216.250
     -2506.169
  23022455.31009  23022457.30309 -11542555.97809  -4728990.84109      -151.635
      -118.155
  24321806.03107  24321811.91506  -5752342.97006  -4354883.94306      1434.246
      1117.593
  21248284.39609  21248286.41209 -17554375.03709 -13512401.78909       910.574
       709.537
 02  5 24  2  3  0.0020000  0  7G04G05G06G09G14G24G30
  24368698.64706  24368703.25406  -2868138.76606  -2138469.82506      -702.404
      -547.318
  20999990.36109  20999993.43209 -17020138.54109 -13094004.77009      -989.166
      -770.778
  24080454.51207  24080459.88107  -8068654.69807  -6115741.99807      2768.916
      2157.594
  22323847.77209  22323851.00709  -6758354.48009  -5103192.32109     -3228.463
     -2515.685
  23023381.34309  23023383.62909 -11537689.26909  -4725198.59509      -172.520
      -134.432
  24313658.01207  24313662.91106  -5795159.92606  -4388247.76506      1420.500
      1106.886
  21243121.37709  21243123.59209 -17581507.07709 -13533543.63109       898.530
       700.152
 02  5 24  2  3 30.0020000  0  7G04G05G06G09G14G24G30
  24372764.46006  24372768.76206  -2846772.06306  -2121820.43506      -722.053
      -562.635
  21005671.45909  21005674.57709 -16990284.12609 -13070741.59209     -1001.158
      -780.122
  24064666.38207  24064671.42307  -8151619.99407  -6180390.19307      2762.066
      2152.254
  22342311.22509  22342314.69509  -6661328.65209  -5027587.79809     -3239.962
     -2524.645
  23024423.67909  23024425.40209 -11532210.74609  -4720929.61209      -192.750
      -150.195
  24305586.65507  24305591.97706  -5837578.60906  -4421301.27706      1407.372
      1096.654
  21238024.36609  21238026.82809 -17608292.56209 -13554415.42809       887.139
       691.277
 02  5 24  2  4  0.0020000  0  7G04G05G06G09G14G24G30
  24376942.79706  24376947.81406  -2824816.38506  -2104712.11106      -741.711
      -577.962
  21011420.72709  21011424.03309 -16960071.30209 -13047199.12809     -1013.103
      -789.431
  24048917.99807  24048922.62807  -8234380.11907  -6244878.49307      2755.179
      2146.890
  22360839.86509  22360843.30009  -6563959.67709  -4951715.87409     -3251.375
     -2533.539
  23025581.82909  23025583.62309 -11526126.12309  -4716188.34309      -212.973
      -165.952
  24297589.01207  24297594.77906  -5879602.99406  -4454047.52306      1394.185
      1086.381
  21232992.04809  21232994.50909 -17634737.26709 -13575021.67409       875.765
       682.414
 02  5 24  2  4 30.0020000  0  7G04G05G06G09G14G24G30
  24381232.67706  24381236.14606  -2802269.58506  -2087143.19906      -761.548
      -593.412
  21017238.56909  21017241.66409 -16929498.82409 -13023376.41809     -1025.205
      -798.862
  24033209.06107  24033213.75007  -8316931.46607  -6309204.13507      2748.081
      2141.360
  22379434.02409  22379437.13109  -6466247.07809  -4875576.18809     -3262.935
     -2542.547
  23026855.49109  23026857.40109 -11519433.28409  -4710973.13009      -233.370
      -181.845
  24289668.30607  24289674.26106  -5921228.79506  -4486483.18206      1380.708
      1075.876
  21228024.80809  21228027.10609 -17660839.20009 -13595360.83209       864.207
       673.408
 02  5 24  2  5  0.0020000  0  7G04G05G06G09G14G24G30
  24385635.82906  24385640.65905  -2779130.55605  -2069112.80805      -780.871
      -608.470
  21023124.77809  21023127.81409 -16898566.06809 -12999272.96909     -1036.771
      -807.873
  24017540.20707  24017545.11807  -8399270.99007  -6373364.72507      2741.417
      2136.167
  22398093.26909  22398096.77409  -6368191.17509  -4799169.00009     -3273.914
     -2551.102
  23028244.99709  23028247.13109 -11512130.86809  -4705282.92309      -253.264
      -197.352
  24281823.80407  24281828.77407  -5962452.13907  -4518605.24807      1367.693
      1065.734
  21223123.30609  21223125.60409 -17686596.63909 -13615431.55109       853.164
       664.803
 02  5 24  2  5 30.0020000  0  7G04G05G06G09G14G24G30
  24390151.88006  24390153.74406  -2755400.46806  -2050621.83306      -801.083
      -624.220
  21029079.31809  21029082.47209 -16867274.99809 -12974890.31609     -1049.219
      -817.573
  24001911.96307  24001916.76907  -8481398.26007  -6437359.89407      2733.797
      2130.232
  22416817.55609  22416821.04909  -6269794.88909  -4722496.58409     -3285.753
     -2560.327
  23029750.02509  23029751.69009 -11504220.16909  -4699118.73509      -274.047
      -213.545
  24274055.78707  24274059.91306  -6003272.05306  -4550412.94106      1353.701
      1054.831
  21218287.28709  21218289.60809 -17712010.44709 -13635234.51109       841.177
       655.462
 02  5 24  2  6  0.0020000  0  7G04G05G06G09G14G24G30
  24394779.89706  24394783.59006  -2731079.96706  -2031670.79806      -820.375
      -639.253
  21035101.64909  21035104.97809 -16835626.99409 -12950229.53409     -1060.709
      -826.526
  23986324.25207  23986328.80007  -8563312.41307  -6501189.02807      2727.066
      2124.986
  22435606.23409  22435609.63309  -6171060.56909  -4645560.75709     -3296.594
     -2568.775
  23031371.29309  23031373.48509 -11495702.03409  -4692481.21209      -293.918
      -229.027
  24266364.80007  24266369.07906  -6043687.37106  -4581905.39206      1340.565
      1044.594
  21213516.51709  21213519.01409 -17737081.30209 -13654770.23209       830.138
       646.860
 02  5 24  2  6 30.0020000  0  7G04G05G06G09G14G24G30
  24399519.02606  24399522.98806  -2706175.80206  -2012264.98706      -840.000
      -654.555
  21041190.78309  21041193.98309 -16803629.28209 -12925296.25209     -1072.529
      -835.738
  23970775.76007  23970780.57807  -8645018.11807  -6564855.71307      2719.912
      2119.408
  22454457.29909  22454460.44109  -6071996.10609  -4568367.67809     -3307.761
     -2577.474
  23033106.57309  23033108.30809 -11486582.49309  -4685375.06809      -314.125
      -244.772
  24258750.85707  24258754.86606  -6083701.71306  -4613085.35006      1326.982
      1034.008
  21208809.76309  21208812.13109 -17761815.38709 -13674043.53609       818.728
       637.969
 02  5 24  2  7  0.0020000  0  7G04G05G06G09G14G24G30
  24404371.59506  24404375.97906  -2680675.70206  -1992394.76306      -860.193
      -670.279
  21047348.25209  21047351.47609 -16771270.47309 -12900081.59309     -1084.908
      -845.384
  23955270.02807  23955274.31807  -8726501.53607  -6628349.20507      2712.132
      2113.347
  22473373.58709  22473377.06809  -5972590.87609  -4490909.07709     -3319.429
     -2586.568
  23034958.61909  23034960.08409 -11476849.56809  -4677790.97409      -334.909
      -260.968
  24251215.14707  24251220.18706  -6123300.80506  -4643941.78306      1312.764
      1022.937
  21204169.36309  21204171.75509 -17786200.40109 -13693044.83809       806.738
       628.626
 02  5 24  2  7 30.0020000  0  7G04G05G06G09G14G24G30
  24409337.55307  24409340.15506  -2654580.97306  -1972061.22806      -879.787
      -685.547
  21053574.46909  21053577.63409 -16738551.93209 -12874586.62909     -1096.670
      -854.548
  23939806.89907  23939811.40007  -8807762.02507  -6691668.98407      2704.879
      2107.692
  22492354.33809  22492358.11309  -5872847.46809  -4413186.95509     -3330.464
     -2595.166
  23036927.28109  23036929.35609 -11466504.48509  -4669729.86209      -355.100
      -276.701
  24243758.89007  24243764.89206  -6162483.30906  -4674473.57906      1299.045
      1012.238
  21199595.41109  21199597.50909 -17810237.03109 -13711774.67109       795.342
       619.746
 02  5 24  2  8  0.0020000  0  7G04G05G06G09G14G24G30
  24414416.01907  24414418.16406  -2627892.84506  -1951265.31506      -899.492
      -700.903
  21059868.65109  21059871.78109 -16705475.48709 -12848812.77709     -1108.488
      -863.757
  23924385.89307  23924390.69907  -8888798.82907  -6754814.46407      2697.493
      2101.943
  22511398.67709  22511402.28709  -5772768.40409  -4335203.28109     -3341.537
     -2603.795
  23039012.27209  23039013.80809 -11455548.10009  -4661192.41009      -375.391
      -292.515
  24236382.03607  24236386.47907  -6201247.69107  -4704679.56807      1285.172
      1001.433
  21195087.66109  21195089.93509 -17833925.99909 -13730233.59909       783.849
       610.792
 02  5 24  2  8 30.0020000  0  7G04G05G06G09G14G24G30
  24419606.32206  24419609.56906  -2600615.64406  -1930010.32806      -919.106
      -716.186
  21066229.82509  21066232.73309 -16672046.42309 -12822764.15409     -1120.229
      -872.906
  23909006.95307  23909012.18107  -8969614.69907  -6817787.77707      2690.106
      2096.189
  22530505.84309  22530509.10109  -5672359.49109  -4256962.58509     -3352.494
     -2612.333
  23041212.76509  23041214.79309 -11443984.87909  -4652182.09909      -395.601
      -308.262
  24229084.58307  24229089.30706  -6239596.62106  -4734561.82406      1271.297
       990.621
  21190645.08409  21190647.27609 -17857271.44509 -13748424.85009       772.413
       601.880
 02  5 24  2  9  0.0020000  0  7G04G05G06G09G14G24G30
  24424909.80206  24424915.34706  -2572745.97306  -1908293.73006      -938.855
      -731.575
  21072659.00809  21072662.05509 -16638261.51309 -12796438.25209     -1132.079
      -882.139
  23893671.35707  23893676.97207  -9050204.14507  -6880584.65807      2682.540
      2090.286
  22549675.97609  22549679.46909  -5571618.83809  -4178463.38909     -3363.527
     -2620.930
  23043529.33809  23043530.85109 -11431811.15509  -4642696.08409      -415.953
      -324.118
  24221867.30307  24221872.88207  -6277523.79607  -4764115.44207      1257.194
       979.633
  21186268.71009  21186270.77309 -17880269.54809 -13766345.44909       760.820
       592.847
 02  5 24  2  9 30.0020000  0  8G04G05G06G09G14G24G25G30
  24430326.61507  24430330.49506  -2544282.71306  -1886114.57306      -958.701
      -747.035
  21079155.93409  21079159.00609 -16604120.09709 -12769834.54909     -1144.020
      -891.443
  23878379.07107  23878383.94807  -9130564.29107  -6943202.87107      2674.792
      2084.252
  22568909.76309  22568913.45509  -5470546.49209  -4099705.72809     -3374.631
     -2629.581
  23045962.24209  23045964.31709 -11419025.80609  -4632733.46009      -436.408
      -340.057
  24214730.96707  24214736.20707  -6315025.51507  -4793337.52007      1242.904
       968.498
  26205753.59205          .00001     -2756.80501          .00011      2758.966
          .000
  21181958.88709  21181961.09109 -17902918.52409 -13783993.99209       749.111
       583.722
 02  5 24  2 10  0.0020000  0  8G04G05G06G09G14G24G25G30
  24435854.40206  24435858.22406  -2515231.76306  -1863477.49906      -978.316
      -762.321
  21085719.53509  21085722.70009 -16569628.75809 -12742958.18909     -1155.708
      -900.552
  23863129.99907  23863134.65207  -9210699.19307  -7005645.58307      2667.230
      2078.359
  22588204.82909  22588208.34509  -5369149.76209  -4020695.30509     -3385.448
     -2638.012
  23048510.55109  23048513.01309 -11405634.68909  -4622298.82209      -456.640
      -355.823
  24207675.15707  24207680.10407  -6352105.29407  -4822230.87007      1228.777
       957.490
  26190002.71605          .00001    -85524.29601          .00011      2758.526
          .000
  21177714.14309  21177716.51109 -17925224.12809 -13801374.97509       737.629
       574.775
 02  5 24  2 10 30.0020000  0  8G04G05G06G09G14G24G25G30
  24441495.79506  24441501.35206  -2485587.13806  -1840377.80206      -998.056
      -777.705
  21092350.62009  21092353.91409 -16534781.88909 -12715804.77809     -1167.497
      -909.738
  23847925.41107  23847930.12307  -9290601.06207  -7067906.69007      2659.489
      2072.326
  22607562.51609  22607566.04409  -5267424.01909  -3941428.51309     -3396.328
     -2646.490
  23051175.36309  23051177.61409 -11391631.68509  -4611387.39109      -476.974
      -371.671
  24200700.65307  24200705.89306  -6388755.02706  -4850789.04906      1214.448
       946.330
  26174257.61405  26174261.31805   -168272.93005    -34385.37605      2757.925
      2149.019
  21173536.09109  21173538.47009 -17947179.77309 -13818483.25409       726.011
       565.723
 02  5 24  2 11  0.0020000  0  8G04G05G06G09G14G24G25G30
  24447248.36706  24447251.25006  -2455357.27306  -1816822.08406     -1017.362
      -792.740
  21099047.68709  21099050.73409 -16499588.05909 -12688381.01509     -1178.864
      -918.595
  23832763.71907  23832768.10307  -9370276.19707  -7129991.13207      2652.070
      2066.543
  22626980.84509  22626984.22109  -5165379.07709  -3861912.98509     -3406.765
     -2654.622
  23053954.78209  23053956.78709 -11377025.06809  -4600005.61009      -496.909
      -387.202
  24193807.19807  24193811.88707  -6424980.53907  -4879016.71407      1200.457
       935.423
  26158512.73405  26158513.85905   -251009.40205    -98855.36905      2757.737
      2148.886
  21169423.05909  21169425.45109 -17968793.29409 -13835324.95709       714.773
       556.966
 02  5 24  2 11 30.0020000  0  8G04G05G06G09G14G24G25G30
  24453112.81306  24453116.30606  -2424539.73806  -1792808.42506     -1037.071
      -808.105
  21105811.17109  21105814.10209 -16464045.43409 -12660685.46309     -1190.590
      -927.733
  23817646.09208  23817650.37107  -9449720.24507  -7191895.51607      2644.228
      2060.436
  22646460.26809  22646463.92509  -5063013.72709  -3782147.79309     -3417.538
     -2663.016
  23056849.60609  23056851.82109 -11361812.46909  -4588151.63509      -517.220
      -403.030
  24186995.31007  24187000.69007  -6460776.70207  -4906909.79507      1185.981
       924.140
  26142771.62605  26142774.63805   -333729.90605   -163312.90505      2757.038
      2148.337
  21165375.87709  21165378.13909 -17990061.86009 -13851897.86009       703.173
       547.927
 02  5 24  2 12  0.0020000  0  8G04G05G06G09G14G24G25G30
  24459089.60106  24459092.63706  -2393129.88706  -1768333.22806     -1056.723
      -823.411
  21112641.79609  21112644.87909 -16428149.83609 -12632714.87509     -1202.255
      -936.823
  23802573.21208  23802577.78407  -9528926.63607  -7253614.69807      2636.379
      2054.318
  22666001.60209  22666005.06009  -4960324.46409  -3702130.20609     -3428.215
     -2671.337
  23059860.63009  23059862.62209 -11345989.00009  -4575821.65509      -537.492
      -418.824
  24180265.71607  24180271.28407  -6496136.06307  -4934462.51107      1171.483
       912.842
  26127034.81905  26127037.71405   -416427.42005   -227752.49305      2756.358
      2147.803
  21161395.26609  21161397.43509 -18010980.09809 -13868197.77909       691.571
       538.886
 02  5 24  2 12 30.0020000  0  8G04G05G06G09G14G24G25G30
  24465179.65706  24465183.70206  -2361126.71106  -1743395.70406     -1076.513
      -838.843
  21119539.96309  21119543.26809 -16391900.49409 -12604468.63309     -1214.059
      -946.020
  23787546.64308  23787550.53507  -9607892.35507  -7315146.34307      2628.293
      2048.019
  22685604.31509  22685607.58609  -4857311.64909  -3621860.49009     -3438.999
     -2679.738
  23062988.13609  23062990.01109 -11329553.65909  -4563014.89809      -557.892
      -434.721
  24173621.63807  24173626.55007  -6531055.49407  -4961672.43607      1156.785
       901.392
  26111302.62705  26111308.46405   -499099.70405   -292172.39905      2755.446
      2147.103
  21157481.58809  21157483.83909 -18031546.52009 -13884223.55209       679.818
       529.729
 02  5 24  2 13  0.0020000  0  8G04G05G06G09G14G24G25G30
  24471381.80506  24471386.96306  -2328534.32006  -1717999.02606     -1096.393
      -854.332
  21126504.36309  21126507.53909 -16355301.80309 -12575950.17309     -1225.952
      -955.287
  23772565.22808  23772569.29607  -9686619.22907  -7376491.90207      2620.072
      2041.612
  22705267.61109  22705270.95209  -4753980.29209  -3541342.56609     -3449.844
     -2688.189
  23066231.57809  23066233.39509 -11312510.32209  -4549734.38809      -578.416
      -450.712
  24167060.43907  24167065.52607  -6565536.68607  -4988540.87807      1141.870
       889.763
  26095574.94605  26095577.09105   -581749.10405   -356574.52605      2754.385
      2146.291
  21153634.32009  21153636.65309 -18051764.54209 -13899977.85009       667.944
       520.476
 02  5 24  2 13 30.0020000  0  8G04G05G06G09G14G24G25G30
  24477696.46806  24477700.13706  -2295351.11906  -1692142.00706     -1115.792
      -869.442
  21133535.70909  21133538.75709 -16318352.27809 -12547158.34209     -1237.324
      -964.149
  23757629.96708  23757634.48007  -9765103.94607  -7437648.74907      2612.259
      2035.521
  22724991.56309  22724995.38409  -4650330.29609  -3460576.36009     -3460.124
     -2696.199
  23069590.71609  23069592.32209 -11294857.41909  -4535978.88009      -598.418
      -466.299
  24160582.66407  24160587.52907  -6599575.24407  -5015064.41307      1127.379
       878.480
  26079851.92505  26079854.35105   -664372.27305   -420956.22105      2753.805
      2145.820
  21149853.64809  21149855.77009 -18071632.11109 -13915459.07009       656.579
       511.620
 02  5 24  2 14  0.0020000  0  8G04G05G06G09G14G24G25G30
  24484121.98606  24484125.98306  -2261584.43906  -1665830.30406     -1135.520
      -884.822
  21140632.27109  21140635.55309 -16281059.43709 -12518098.98609     -1249.044
      -973.281
  23742739.75108  23742744.18107  -9843351.67907  -7498620.92907      2604.051
      2029.129
  22744774.53309  22744778.20209  -4546370.03409  -3379568.37809     -3470.733
     -2704.467
  23073064.60609  23073066.48209 -11276601.99109  -4521753.87609      -618.787
      -482.172
  24154188.67707  24154193.09607  -6633175.77607  -5041246.60807      1112.460
       866.846
  26064131.97404  26064136.86205   -746974.61905   -485321.68805      2752.800
      2145.045
  21146138.41309  21146140.57009 -18091155.60909 -13930672.18009       644.798
       502.439
 02  5 24  2 14 30.0020000  0  8G04G05G06G09G14G24G25G30
  24490660.99306  24490665.15406  -2227221.72106  -1639054.18706     -1155.232
      -900.173
  21147796.53509  21147799.72309 -16243411.28109 -12488762.76709     -1260.728
      -982.385
  23727897.77608  23727901.99607  -9921347.85307  -7559397.09407      2595.779
      2022.682
  22764618.60209  22764622.34109  -4442088.51209  -3298310.06609     -3481.265
     -2712.673
  23076655.41209  23076657.61509 -11257731.73009  -4507049.78709      -639.129
      -498.023
  24147880.86407  24147886.29107  -6666323.74407  -5067076.17207      1097.486
       855.187
  26048421.21305  26048424.07305   -829542.08105   -549659.83205      2751.790
      2144.267
  21142491.18909  21142493.46309 -18110322.22709 -13945607.20109       633.053
       493.288
 02  5 24  2 15  0.0020000  0  8G04G05G06G09G14G24G25G30
  24497312.13706  24497315.16106  -2192270.35506  -1611819.38806     -1175.077
      -915.651
  21155026.93509  21155030.06509 -16205415.26909 -12459155.48909     -1272.538
      -991.587
  23713102.46208  23713106.70508  -9999097.44008  -7619981.12208      2587.313
      2016.085
  22784522.58709  22784525.86909  -4337494.00909  -3216807.86709     -3491.903
     -2720.962
  23080362.03109  23080363.83609 -11238253.75809  -4491872.14509      -659.614
      -513.983
  24141658.35107  24141663.46207  -6699023.38807  -5092556.40607      1082.270
       843.324
  26032715.06205  26032717.31305   -912079.94505   -613975.07005      2750.533
      2143.262
  21138910.48209  21138912.86109 -18129138.36309 -13960269.11509       621.140
       484.006
 02  5 24  2 15 30.0020000  0  8G04G05G06G09G14G24G25G30
  24504075.31406  24504079.83906  -2156730.74506  -1584126.19706     -1194.753
      -930.975
  21162323.40609  21162326.44209 -16167071.91709 -12429277.55209     -1284.191
     -1000.668
  23698354.25508  23698358.21707 -10076598.86407  -7680371.77907      2578.924
      2009.548
  22804485.28609  22804488.68509  -4232587.96909  -3135062.92309     -3502.342
     -2729.095
  23084184.00709  23084185.83509 -11218168.07509  -4476220.97609      -679.956
      -529.837
  24135521.05907  24135526.93207  -6731272.61907  -5117685.62707      1067.150
       831.543
  26017014.22805  26017018.77605   -994586.29305   -678265.76605      2749.357
      2142.343
  21135396.56009  21135398.91709 -18147603.60709 -13974657.61209       609.359
       474.827
 02  5 24  2 16  0.0020000  0  8G04G05G06G09G14G24G25G30
  24510949.77306  24510953.18406  -2120603.27406  -1555974.94606     -1213.619
      -945.675
  21169685.91409  21169689.06709 -16128381.91809 -12399129.50709     -1295.018
     -1009.106
  23683654.05008  23683658.66808 -10153850.44908  -7740567.75308      2571.292
      2003.602
  22824507.58509  22824510.82109  -4127371.92109  -3053076.41009     -3511.932
     -2736.569
  23088121.63209  23088123.78909 -11197475.18409  -4460096.64509      -699.457
      -545.029
  24129470.64807  24129476.15707  -6763069.17807  -5142462.14907      1052.726
       820.304
  26001320.00905  26001327.44105  -1077060.03305   -742530.94405      2748.967
      2142.065
  21131949.52509  21131951.81109 -18165717.88109 -13988772.62709       598.373
       466.265
 02  5 24  2 16 30.0020000  0  8G04G05G06G09G14G24G25G30
  24517934.54206  24517938.42206  -2083898.77706  -1527374.04306     -1233.153
      -960.898
  21177112.30609  21177115.50609 -16089356.17609 -12368719.83809     -1306.485
     -1018.039
  23668998.74708  23669003.44807 -10230861.05207  -7800575.93507      2562.950
      1997.098
  22844586.05609  22844589.45609  -4021857.85609  -2970857.68309     -3522.118
     -2744.506
  23092173.16709  23092175.41809 -11176186.11109  -4443507.76509      -719.618
      -560.743
  24123504.91907  24123508.87007  -6794421.61407  -5166892.61107      1037.605
       808.521
  25985629.90305  25985637.55804  -1159509.68404   -806777.40804      2747.864
      2141.157
  21128567.31909  21128569.78009 -18183491.17409 -14002621.94009       586.714
       457.179
 02  5 24  2 17  0.0020000  0  8G04G05G06G09G14G24G25G30
  24525030.94406  24525033.81606  -2046609.01406  -1498317.08506     -1252.708
      -976.134
  21184604.13309  21184607.33409 -16049986.72409 -12338042.34909     -1318.011
     -1027.022
  23654392.43008  23654396.40408 -10307620.13508  -7860388.14808      2554.452
      1990.481
  22864722.75509  22864726.20109  -3916038.83809  -2888401.32609     -3532.337
     -2752.468
  23096339.21109  23096341.05109 -11154292.38409  -4426447.72009      -739.840
      -576.499
  24117625.09707  24117629.73907  -6825318.86407  -5190968.35807      1022.337
       796.628
  25969946.86905  25969946.19005  -1241925.19805   -870997.28705      2746.612
      2140.235
  21125251.80809  21125254.36309 -18200914.57609 -14016198.60509       574.964
       448.023
 02  5 24  2 17 30.0020000  0  8G04G05G06G09G14G24G25G30
  24532238.52406  24532242.41606  -2008734.13706  -1468804.24306     -1272.276
      -991.385
  21192161.22709  21192164.42709 -16010273.74509 -12307097.17609     -1329.515
     -1035.986
  23639833.82408  23639837.85608 -10384125.57108  -7920002.69308      2545.922
      1983.836
  22884917.26109  22884920.73109  -3809915.77609  -2805708.04309     -3542.520
     -2760.404
  23100620.68109  23100623.06009 -11131793.95509  -4408916.48109      -760.046
      -592.244
  24111832.17307  24111836.90907  -6855758.65607  -5214687.65707      1006.978
       784.656
  25954271.32805  25954273.39105  -1324304.50305   -935188.99505      2745.314
      2139.204
  21122003.04509  21122005.43609 -18217987.21309 -14029501.95609       563.215
       438.869
 02  5 24  2 18  0.0020000  0  8G04G05G06G09G14G24G25G30
  24539556.48006  24539559.30506  -1970275.24806  -1438836.25606     -1291.521
     -1006.378
  21199783.48909  21199786.87709 -15970218.09509 -12275884.98309     -1340.715
     -1044.713
  23625323.66708  23625327.46508 -10460376.14708  -7979418.68108      2537.588
      1977.338
  22905169.24709  22905172.71709  -3703490.57509  -2722779.33409     -3552.340
     -2768.057
  23105016.76109  23105019.14109 -11108691.79009  -4390914.80109      -779.959
      -607.759
  24106127.23307  24106131.85107  -6885739.31307  -5238049.17307       991.851
       772.868
  25938601.66105  25938608.68205  -1406646.69305   -999351.78705      2744.291
      2138.415
  21118820.82709  21118823.38209 -18234709.41209 -14042532.23309       551.744
       429.931
 02  5 24  2 18 30.0020000  0  8G04G05G06G09G14G24G25G30
  24546985.37706  24546988.96406  -1931236.03906  -1408416.11406     -1311.212
     -1021.728
  21207470.30609  21207473.56509 -15929823.80109 -12244408.91609     -1352.343
     -1053.773
  23610861.89408  23610866.12608 -10536373.45608  -8038637.26908      2528.782
      1970.478
  22925478.16509  22925481.65809  -3596768.34109  -2639619.16909     -3562.561
     -2776.021
  23109527.13709  23109529.52809 -11084989.57809  -4372445.55009      -800.293
      -623.603
  24100509.41507  24100513.70507  -6915261.59607  -5261053.54107       976.187
       760.670
  25922939.85505  25922941.15605  -1488953.31505  -1063486.74005      2742.743
      2137.215
  21115704.78609  21115707.35309 -18251084.01609 -14055291.66509       539.798
       420.622
 02  5 24  2 19  0.0030000  0  8G04G05G06G09G14G24G25G30
  24554525.89606  24554529.00206  -1891611.67006  -1377540.00906     -1330.419
     -1036.694
  21215222.41709  21215225.73509 -15889086.05809 -12212665.22709     -1363.509
     -1062.474
  23596448.55108  23596451.96308 -10612114.10108  -8097655.89308      2520.334
      1963.897
  22945844.52509  22945847.90109  -3489742.89109  -2556222.73309     -3572.307
     -2783.615
  23114152.48909  23114154.92709 -11060683.01009  -4353505.37809      -820.185
      -639.104
  24094979.53307  24094984.78507  -6944320.52007  -5283696.83407       960.901
       748.757
  25907284.70405  25907284.72705  -1571221.51705  -1127591.80805      2741.538
      2136.258
  21112655.91509  21112658.40009 -18267107.24709 -14067777.29109       528.288
       411.653
 02  5 24  2 19 30.0030000  0  8G04G05G06G09G14G24G25G30
  24562175.85406  24562179.57006  -1851408.00206  -1346212.48006     -1349.818
     -1051.805
  21223038.89009  21223042.24309 -15848010.56809 -12180658.35109     -1374.839
     -1071.303
  23582085.41708  23582089.26108 -10687593.83208  -8156471.20208      2511.660
      1957.135
  22966266.24809  22966269.68309  -3382425.21009  -2472598.58609     -3582.175
     -2791.303
  23118892.20709  23118894.34009 -11035776.47109  -4334097.68009      -840.238
      -654.730
  24089538.59207  24089543.25707  -6972914.36407  -5305977.74407       945.371
       736.653
  25891636.86705  25891636.28105  -1653446.53605  -1191663.29705      2740.118
      2135.137
  21109673.34209  21109675.68609 -18282780.21609 -14079989.98609       516.603
       402.549
 02  5 24  2 20  0.0030000  0  8G04G05G06G09G14G24G25G30
  24569936.36106  24569941.48406  -1810626.69306  -1314434.85606     -1369.055
     -1066.792
  21230919.24709  21230922.59909 -15806599.20509 -12148389.76009     -1386.040
     -1080.031
  23567771.02109  23567774.76108 -10762816.17208  -8215085.96208      2503.045
      1950.424
  22986743.26509  22986746.80509  -3274816.14009  -2388747.38809     -3591.875
     -2798.863
  23123745.55309  23123747.39309 -11010272.44309  -4314224.42509      -860.159
      -670.255
  24084185.38007  24084190.12707  -7001045.03607  -5327897.70607       929.880
       724.584
  25875996.85105  25875997.62505  -1735632.52505  -1255704.35605      2738.810
      2134.136
  21106757.08509  21106759.37109 -18298105.76309 -14091931.96809       504.994
       393.502
 02  5 24  2 20 30.0030000  0  8G04G05G06G09G14G24G25G30
  24577807.17406  24577813.09406  -1769266.39206  -1282206.08106     -1388.251
     -1081.756
  21238863.61409  21238866.90809 -15764850.45609 -12115858.27409     -1397.164
     -1088.699
  23553506.56508  23553510.72608 -10837777.31908  -8273497.18808      2494.408
      1943.693
  23007276.35709  23007280.07309  -3166915.10709  -2304668.67809     -3601.479
     -2806.346
  23128712.58009  23128714.67809 -10984169.33409  -4293884.35309      -880.012
      -685.724
  24078921.22707  24078927.03007  -7028708.27707  -5349453.47007       914.362
       712.487
  25860367.25005  25860370.54405  -1817775.35805  -1319711.68405      2737.426
      2133.063
  21103907.25109  21103909.58309 -18313081.46409 -14103601.34109       493.421
       384.485
 02  5 24  2 21  0.0030000  0  8G04G05G06G09G14G24G25G30
  24585788.57406  24585798.10405  -1727322.84705  -1249522.78005     -1407.649
     -1096.823
  21246873.33609  21246876.41909 -15722760.27509 -12083060.74209     -1408.508
     -1097.540
  23539292.47009  23539296.36208 -10912470.71908  -8331699.76708      2485.486
      1936.737
  23027865.65209  23027869.64909  -3058718.74909  -2220359.84909     -3611.271
     -2813.976
  23133794.64109  23133796.25809 -10957462.91109  -4273074.16809      -900.085
      -701.364
  24073747.41307  24073753.37907  -7055896.88407  -5370639.37407       898.539
       700.157
  25844744.98805  25844750.14505  -1899868.57505  -1383680.45905      2735.796
      2131.791
  21101125.00309  21101127.21809 -18327702.08309 -14114994.02609       481.612
       375.282
 02  5 24  2 21 30.0030000  0  8G04G05G06G09G14G24G25G30
  24593880.74306          .00001  -1684802.80001          .00011     -1427.011
          .000
  21254946.50909  21254949.53309 -15680335.05009 -12050002.12909     -1419.821
     -1106.354
  23525128.71908  23525132.36508 -10986900.86108  -8389697.21008      2476.526
      1929.759
  23048509.33509  23048513.20409  -2950234.64709  -2135826.81009     -3620.975
     -2821.539
  23138990.39209  23138992.83009 -10930159.57309  -4251798.84109      -920.115
      -716.973
  24068662.94107  24068668.40307  -7082615.17307  -5391458.79507       882.684
       687.804
  25829132.02505  25829134.20505  -1981916.71205  -1447614.06605      2734.078
      2130.470
  21098409.28409  21098411.11209 -18341973.34509 -14126114.48509       469.803
       366.080
 02  5 24  2 22  0.0030000  0  8G04G05G06G09G14G24G25G30
  24602081.11506          .00001  -1641706.60001          .00011     -1446.016
          .000
  21263083.44009  21263086.37109 -15637575.06709 -12016682.66809     -1430.790
     -1114.901
  23511015.80909  23511019.63008 -11061065.55208  -8447487.81708      2467.829
      1922.981
  23069207.75609  23069211.13209  -2841464.07709  -2051070.53909     -3630.329
     -2828.827
  23144299.63009  23144301.86909 -10902259.82309  -4230058.77909      -939.817
      -732.325
  24063668.38707  24063674.08407  -7108860.76807  -5411909.88907       867.058
       675.634
  25813527.48405  25813533.32105  -2063917.81605  -1511510.99105      2732.699
      2129.383
  21095760.15409  21095762.28809 -18355894.71509 -14136962.30709       458.317
       357.131
 02  5 24  2 22 30.0030000  0  8G04G05G06G09G14G24G25G30
  24610393.19706  24610397.52306  -1598027.36706     15936.87906     -1465.228
     -1141.742
  21271285.41109  21271288.31809 -15594473.14109 -11983096.75809     -1441.960
     -1123.605
  23496954.95209  23496958.64408 -11134955.59308  -8505064.41108      2458.868
      1916.000
  23089961.79309  23089964.92309  -2732400.79709  -1966086.18809     -3639.842
     -2836.240
  23149723.45509  23149725.60008 -10873756.48008  -4207848.38208      -959.710
      -747.827
  24058766.36907  24058770.98707  -7134623.89507  -5431985.04407       851.166
       663.251
  25797934.96005  25797939.77805  -2145862.43005  -1575363.95605      2730.975
      2128.034
  21093178.99109  21093181.38209 -18369458.20609 -14147531.24609       446.607
       348.007
 02  5 24  2 23  0.0030000  0  8G04G05G06G09G14G24G25G30
  24618813.83806  24618817.67106  -1553778.08406     50416.79806     -1484.310
     -1156.613
  21279550.12109  21279553.11009 -15551042.23409 -11949254.50109     -1453.005
     -1132.211
  23482944.44008  23482948.26208 -11208581.64208  -8562435.30008      2449.945
      1909.047
  23110768.75909  23110772.04109  -2623058.86309  -1880884.69309     -3649.189
     -2843.525
  23155260.18809  23155261.82909 -10844662.61309  -4185177.85409      -979.463
      -763.216
  24053953.20907  24053958.07307  -7159915.06707  -5451692.43607       835.320
       650.899
  25782349.28605  25782352.55605  -2227761.34105  -1639181.34405      2729.358
      2126.781
  21090663.89309  21090666.02609 -18382675.72909 -14157830.61109       434.979
       338.945
 02  5 24  2 23 30.0030000  0  8G04G05G06G09G14G24G25G30
  24627343.47706  24627346.80606  -1508955.71106     85343.29806     -1503.846
     -1171.827
  21287877.85909  21287881.02409 -15507279.16509 -11915153.41409     -1464.524
     -1141.187
  23468984.70108  23468989.01508 -11281938.28408  -8619596.25908      2440.489
      1901.677
  23131629.65909  23131633.34009  -2513436.12309  -1795464.40809     -3658.977
     -2851.152
  23160909.65709  23160911.67309 -10814975.12809  -4162044.75009      -999.699
      -778.986
  24049231.72007  24049236.32707  -7184728.21807  -5471027.33607       818.889
       638.092
  25766774.04605  25766777.56305  -2309609.00705  -1702958.66705      2727.171
      2125.059
  21088215.27309  21088217.58309 -18395543.24609 -14167857.24309       422.845
       329.489
 02  5 24  2 24  0.0030000  0  8G04G05G06G09G14G24G25G30
  24635981.47406  24635984.94406  -1463557.47806    120718.55906     -1522.739
     -1186.547
  21296269.55709  21296272.96809 -15463180.87409 -11880791.11609     -1475.387
     -1149.652
  23455077.78208  23455082.41308 -11355020.16608  -8676543.10808      2431.599
      1894.750
  23152543.82509  23152547.61109  -2403530.66909  -1709823.82209     -3668.072
     -2858.237
  23166672.21309  23166674.08809 -10784690.89809  -4138446.66509     -1019.275
      -794.241
  24044601.57007  24044606.55207  -7209057.82007  -5489985.46507       803.065
       625.764
  25751209.89905  25751213.95505  -2391399.97605  -1766691.86605      2725.544
      2123.784
  21085834.07609  21085836.30309 -18408056.69709 -14177607.97709       411.363
       320.543
 02  5 24  2 24 30.0030000  0  8G04G05G06G09G14G24G25G30
  24644729.24606  24644732.79806  -1417586.63806    156539.95006     -1542.316
     -1201.813
  21304724.26209  21304727.72009 -15418750.56309 -11846170.10009     -1486.965
     -1158.674
  23441222.85309  23441226.81508 -11427828.26108  -8733276.63008      2421.937
      1887.223
  23173511.09009  23173514.54809  -2293346.59309  -1623966.11909     -3677.854
     -2865.861
  23172548.15609  23172549.76209 -10753813.30009  -4114386.20909     -1039.554
      -810.040
  24040063.41707  24040067.68407  -7232904.90707  -5508567.58107       786.417
       612.795
  25735656.40905  25735657.78005  -2473135.76005  -1830382.05505      2723.155
      2121.938
  21083519.68609  21083521.90109 -18420218.61309 -14187084.79109       399.103
       310.989
 02  5 24  2 25  0.0030000  0  8G04G05G06G09G14G24G25G30
  24653588.28606  24653592.01305  -1371036.80605    192812.51205     -1560.982
     -1216.349
  21313243.52209  21313246.87409 -15373981.55609 -11811285.17209     -1497.633
     -1166.985
  23427421.61109  23427426.19508 -11500353.59708  -8789789.83208      2413.083
      1880.322
  23194532.49509  23194536.01109  -2182878.23009  -1537886.88409     -3686.696
     -2872.749
  23178538.05609  23178539.27509 -10722336.10209  -4089858.52409     -1058.932
      -825.142
  24035619.55107  24035624.54507  -7256260.28907  -5526766.55307       770.591
       600.456
  25720114.67305  25720117.55705  -2554806.47305  -1894021.55205      2721.564
      2120.706
  21081273.60109  21081275.78109 -18432021.31709 -14196281.70109       387.742
       302.137
 02  5 24  2 25 30.0030000  0  8G04G05G06G09G14G24G25G30
  24662554.06206  24662557.76606  -1323920.50006    229526.50006     -1580.339
     -1231.437
  21321825.01709  21321828.25209 -15328886.08909 -11776145.85109     -1508.987
     -1175.834
  23413672.47409  23413676.76408 -11572606.27608  -8846090.53808      2403.499
      1872.855
  23215605.58309  23215609.66209  -2072138.76809  -1451596.41109     -3696.178
     -2880.138
  23184639.72109  23184641.69108 -10690271.51008  -4064873.13608     -1078.970
      -840.756
  24031266.44207  24031271.70607  -7279133.34107  -5544589.68407       754.005
       587.538
  25704583.10005  25704583.53305  -2636422.65505  -1957618.54905      2719.248
      2118.889
  21079093.90309  21079096.13109 -18443476.26109 -14205207.62109       375.674
       292.734
 02  5 24  2 26  0.0030000  0  8G04G05G06G09G14G24G25G30
  24671630.11306  24671632.30505  -1276224.46905    266692.23105     -1599.717
     -1246.535
  21330471.21809  21330474.32409 -15283450.30909 -11740741.35809     -1520.391
     -1184.720
  23399978.15409  23399982.66708 -11644570.48608  -8902166.48708      2393.775
      1865.278
  23236732.71709  23236736.52709  -1961115.65609  -1365084.91409     -3705.677
     -2887.539
  23190855.71609  23190858.06108 -10657606.08408  -4039419.56908     -1099.051
      -856.400
  24027008.49707  24027014.03007  -7301508.35607  -5562024.73807       737.319
       574.534
  25689066.31505  25689066.89005  -2717968.14705  -2021160.53005      2716.783
      2116.976
  21076982.97809  21076985.39309 -18454568.79509 -14213851.14609       363.506
       283.251
 02  5 24  2 26 30.0030000  0  8G04G05G06G09G14G24G25G30
  24680815.86006  24680819.89305  -1227955.47405    304304.39105     -1618.148
     -1260.884
  21339180.84009  21339183.82909 -15237680.58509 -11705076.63809     -1530.879
     -1192.892
  23386337.97609  23386341.69109 -11716250.32109  -8958020.85209      2384.906
      1858.368
  23257912.08209  23257915.20009  -1849816.25309  -1278358.12209     -3714.221
     -2894.198
  23197184.79109  23197186.79509 -10624346.80509  -4013503.24109     -1118.199
      -871.325
  24022845.08507  24022850.12607  -7323389.23407  -5579074.75807       721.446
       562.164
  25673560.81005  25673562.77905  -2799447.03105  -2084650.55105      2715.163
      2115.716
  21074940.10909  21074942.52409 -18465304.59409 -14222216.69909       352.253
       274.483
 02  5 24  2 27  0.0030000  0  8G04G05G06G09G14G24G25G30
  24690108.84306  24690112.37205  -1179118.52805    342359.16705     -1637.432
     -1275.922
  21347953.16509  21347956.43509 -15191582.05209 -11669155.71409     -1542.174
     -1201.694
  23372751.25509  23372755.26409 -11787648.52509  -9013655.75709      2375.146
      1850.763
  23279143.16609  23279146.78809  -1738246.56209  -1191420.72809     -3723.560
     -2901.476
  23203625.86309  23203627.87909 -10590498.63109  -3987128.05209     -1138.166
      -886.884
  24018774.90207  24018780.41107  -7344777.96507  -5595741.29107       704.663
       549.087
  25658067.87305  25658069.74905  -2880861.88105  -2148090.67405      2712.660
      2113.757
  21072964.18909  21072966.46309 -18475687.52709 -14230307.28909       340.128
       265.035
 02  5 24  2 27 30.0030000  0  8G04G05G06G09G14G24G25G30
  24699510.95806  24699514.61606  -1129711.78306    380857.89706     -1656.135
     -1290.499
  21356788.37409  21356791.28109 -15145152.45009 -11632976.80909     -1552.913
     -1210.062
  23359219.09009  23359222.79509 -11858760.51309  -9069067.65209      2365.867
      1843.529
  23300425.78909  23300429.28209  -1626405.53409  -1104271.89209     -3732.285
     -2908.274
  23210179.43609  23210181.26509 -10556059.33509  -3960292.24809     -1157.564
      -901.998
  24014798.95207  24014804.19107  -7365670.20307  -5612020.92607       688.376
       536.398
  25642588.73605  25642593.24905  -2962208.11705  -2211477.34405      2710.623
      2112.167
  21071056.22509  21071058.28809 -18485714.33209 -14238120.38209       328.561
       256.020
 02  5 24  2 28  0.0030000  0  8G04G05G06G09G14G24G25G30
  24709021.63406  24709026.53306  -1079732.20006    419802.99906     -1675.665
     -1305.711
  21365687.30909  21365690.38009 -15098388.25509 -11596537.18609     -1564.504
     -1219.093
  23345742.41709  23345746.28509 -11929580.67609  -9124252.14409      2355.660
      1835.579
  23321760.40909  23321763.94909  -1514290.66409  -1016909.68709     -3741.837
     -2915.718
  23216846.06809  23216848.08409 -10521025.96209  -3932993.52709     -1177.799
      -917.766
  24010919.09707  24010924.32507  -7386060.44207  -5627909.39807       671.150
       522.972
  25627122.80805  25627125.26905  -3043479.93905  -2274806.07905      2707.673
      2109.872
  21069216.72509  21069218.91709 -18495380.92709 -14245652.79309       316.080
       246.295
 02  5 24  2 28 30.0030000  0  8G04G05G06G09G14G24G25G30
  24718642.51006  24718645.62806  -1029176.84206    459196.77106     -1694.086
     -1320.061
  21374650.63009  21374653.74809 -15051286.19309 -11559834.28509     -1575.032
     -1227.298
  23332322.14509  23332325.61509 -12000103.54109  -9179204.96909      2346.446
      1828.399
  23343147.84009  23343151.57909  -1401899.57009   -929332.23909     -3750.297
     -2922.308
  23223626.34409  23223627.96209 -10485395.57409  -3905229.59509     -1196.970
      -932.704
  24007135.79307  24007141.27907  -7405942.30707  -5643401.73907       654.899
       510.309
  25611672.42605  25611675.72005  -3124672.01305  -2338072.59705      2705.698
      2108.344
  21067446.64609  21067448.76809 -18504683.06309 -14252901.20109       304.671
       237.406
 02  5 24  2 29  0.0030000  0  8G04G05G06G09G14G24G25G30
  24728368.48606  24728372.75306   -978067.25406    499022.41206     -1713.217
     -1334.974
  21383674.15209  21383677.45809 -15003867.09509 -11522884.34709     -1586.224
     -1236.017
  23318955.38709  23318958.65709 -12070348.01409  -9233940.87609      2336.512
      1820.657
  23364583.67609  23364587.80209  -1289254.27009   -841556.69109     -3759.368
     -2929.378
  23230516.05309  23230518.50308 -10449189.40208  -3877017.00108     -1216.770
      -948.131
  24003445.53307  24003451.17207  -7425334.60107  -5658512.60607       637.914
       497.074
  25596233.78005  25596237.68305  -3205802.53605  -2401291.12705      2702.995
      2106.230
  21065741.95709  21065744.02009 -18513640.89809 -14259881.32609       292.551
       227.961
 02  5 24  2 29 30.0030000  0  8G04G05G06G09G14G24G25G30
  24738202.22106  24738206.10106   -926386.67106    539292.96806     -1731.900
     -1349.533
  21392761.31609  21392764.45709 -14956114.10309 -11485674.23809     -1597.035
     -1244.442
  23305644.87209  23305648.49409 -12140294.88609  -9288444.89309      2326.866
      1813.141
  23386070.62209  23386074.04509  -1176338.82109   -753570.64509     -3768.051
     -2936.143
  23237518.79509  23237521.20908 -10412391.05408  -3848342.96308     -1236.193
      -963.265
  23999852.09807  23999857.31507  -7444218.41607  -5673227.23807       621.247
       484.084
  25580810.95205  25580811.80805  -3286852.29305  -2464446.77305      2700.586
      2104.361
  21064106.40809  21064108.68209 -18522236.44609 -14266579.14909       280.761
       218.775
 02  5 24  2 30  0.0030000  0  8G04G05G06G09G14G24G25G30
  24748143.95006  24748146.06006   -874142.70306    580002.55406     -1750.964
     -1364.378
  21401910.59109  21401913.67409 -14908034.13709 -11448209.33609     -1608.206
     -1253.146
  23292389.85009  23292394.14009 -12209948.86009  -9342720.65709      2316.807
      1805.304
  23407607.56709  23407610.86109  -1063161.09609   -665380.22609     -3777.040
     -2943.150
  23244632.46209  23244634.30209 -10375007.68009  -3819213.07009     -1255.949
      -978.658
  23996354.71308  23996359.48407  -7462598.22507  -5687549.13707       604.134
       470.752
  25565401.97305  25565404.40005  -3367825.61505  -2527542.84805      2697.727
      2102.138
  21062538.29309  21062540.35709 -18530475.93509 -14272999.52209       268.623
       209.317
 02  5 24  2 30 30.0030000  0  8G04G05G06G09G14G24G25G30
  24758193.49006  24758198.71806   -821331.03206    621154.43706     -1769.779
     -1379.040
  21411122.99209  21411126.01709 -14859622.49509 -11410485.98809     -1619.181
     -1261.699
  23279192.32109  23279196.08409 -12279303.24109  -9396762.99409      2306.867
      1797.559
  23429195.06909  23429198.80809   -949717.92909   -576982.97009     -3785.781
     -2949.959
  23251858.42509  23251860.32408 -10337035.14708  -3789624.09808     -1275.498
      -993.895
  23992953.82608  23992958.71507  -7480467.12607  -5701472.92507       587.166
       457.530
  25550009.09905  25550013.91605  -3448715.84105  -2590574.17505      2694.984
      2099.979
  21061039.13309  21061041.31309 -18538353.73109 -14279138.06209       256.618
       199.962
 02  5 24  2 31  0.0030000  0  8G04G05G06G09G14G24G25G30
  24768350.26406  24768355.38706   -767957.14906    662744.44306     -1788.591
     -1393.709
  21420397.60009  21420400.57709 -14810884.03509 -11372507.96909     -1630.158
     -1270.253
  23266050.77909  23266054.30809 -12348360.65509  -9450573.92409      2296.855
      1789.757
  23450832.20209  23450836.51609   -836014.94609   -488383.26409     -3794.516
     -2956.767
  23259195.56609  23259197.79308 -10298478.70408  -3759580.12508     -1295.041
     -1009.127
  23989650.58107  23989655.21107  -7497827.49307  -5715000.47407       570.091
       444.228
  25534632.27605  25534634.90205  -3529525.30005  -2653542.58405      2692.175
      2097.803
  21059608.21009  21059610.54209 -18545873.85209 -14284997.89109       244.595
       190.593
 02  5 24  2 31 30.0030000  0  8G04G05G06G09G14G24G25G30
  24778614.44006  24778618.76505   -714020.43005    704773.03205     -1807.162
     -1408.172
  21429734.57109  21429737.73609 -14761817.85609 -11334274.59109     -1640.908
     -1278.630
  23252966.76209  23252970.34809 -12417117.96909  -9504151.01609      2286.982
      1782.063
  23472518.46609  23472521.81909   -722052.40909   -399581.31309     -3802.973
     -2963.354
  23266643.88909  23266646.14009 -10259337.92809  -3729080.81809     -1314.333
     -1024.155
  23986444.69907  23986449.22407  -7514676.22107  -5728129.33307       553.164
       431.034
  25519270.67505  25519275.77405  -3610250.56105  -2716445.41205      2689.480
      2095.709
  21058245.61909  21058247.81109 -18553034.54509 -14290577.65109       232.772
       181.380
 02  5 24  2 32  0.0030000  0  8G04G05G06G09G14G24G25G30
  24788985.64506  24788989.81805   -659517.05705    747243.14705     -1825.915
     -1422.791
  21439134.76909  21439138.02809 -14712419.39109 -11295782.28709     -1651.822
     -1287.134
  23239941.06809  23239944.99509 -12485568.55009  -9557489.09309      2276.888
      1774.197
  23494254.80009  23494258.01109   -607826.85709   -310574.40709     -3811.559
     -2970.046
  23274203.88409  23274205.58308 -10219608.93108  -3698123.18108     -1333.777
     -1039.306
  23983336.43407  23983341.54507  -7531006.57207  -5740854.25607       536.005
       417.663
  25503926.21305  25503932.28505  -3690884.89705  -2779277.35205      2686.604
      2093.447
  21056952.36509  21056954.53309 -18559830.20409 -14295872.96609       220.747
       172.010
 02  5 24  2 32 30.0030000  0  8G04G05G06G09G14G24G25G30
  24799463.73006  24799468.65305   -604457.71405    790146.50305     -1844.515
     -1437.277
  21448596.20509  21448599.30009 -14662698.84509 -11257039.01309     -1662.650
     -1295.572
  23226972.13809  23226975.93609 -12553720.49309  -9610594.45709      2266.796
      1766.331
  23516039.19109  23516043.28209   -493349.28709   -221371.13109     -3820.041
     -2976.654
  23281874.13709  23281875.75408 -10179301.97008  -3666715.16008     -1353.122
     -1054.382
  23980326.45207  23980331.94907  -7546826.30507  -5753181.30907       518.859
       404.304
  25488597.85205  25488599.51605  -3771435.98205  -2842044.40205      2683.671
      2091.170
  21055726.85409  21055728.90509 -18566270.25609 -14300891.18909       208.805
       162.704
 02  5 24  2 33  0.0030000  0  8G04G05G06G09G14G24G25G30
  24810048.18105  24810051.03005   -548833.59905    833489.89505     -1863.498
     -1452.069
  21458121.01209  21458124.05909 -14612646.92909 -11218037.53309     -1673.882
     -1304.324
  23214062.22709  23214066.04809 -12621562.33509  -9663458.18909      2256.240
      1758.109
  23537873.50909  23537877.20209   -378611.42909   -131965.04009     -3828.878
     -2983.541
  23289655.91809  23289657.79308 -10138408.49708  -3634850.13308     -1372.840
     -1069.745
  23977414.74407  23977420.39507  -7562124.11507  -5765101.66207       501.242
       390.577
  25473287.02705  25473290.20305  -3851891.84805  -2904737.28105      2680.287
      2088.527
  21054571.00809  21054573.02409 -18572344.54509 -14305624.39809       196.404
       153.042
 02  5 24  2 33 30.0030000  0  8G04G05G06G09G14G24G25G30
  24820739.53506  24820740.54305   -492651.97405    877267.78405     -1881.674
     -1466.251
  21467707.26009  21467710.48409 -14562269.92409 -11178782.73409     -1684.315
     -1312.453
  23201210.70909  23201214.22609 -12689098.20409  -9716083.50009      2246.415
      1750.451
  23559755.33709  23559759.13509   -263620.89209    -42362.04409     -3836.885
     -2989.782
  23297547.85409  23297549.78808 -10096935.62308  -3602533.62608     -1391.744
     -1084.476
  23974602.72707  23974608.65807  -7576903.98307  -5776618.44307       484.335
       377.404
  25457994.08005  25457996.65905  -3932256.77505  -2967359.27205      2677.622
      2086.448
  21053483.60409  21053485.91409 -18578058.70409 -14310076.98609       184.798
       143.999
 02  5 24  2 34  0.0030000  0  8G04G05G06G09G14G24G25G30
  24831535.80206  24831540.45605   -435916.87905    921476.91205     -1900.363
     -1480.804
  21477355.03709  21477358.23709 -14511571.52809 -11139277.49909     -1695.292
     -1321.006
  23188417.08109  23188420.51609 -12756329.69609  -9768471.63509      2235.962
      1742.307
  23581684.34309  23581688.24709   -148382.49709     47434.09009     -3845.391
     -2996.405
  23305549.34909  23305551.78708 -10054887.43508  -3569768.81708     -1411.179
     -1099.620
  23971888.33607  23971893.95107  -7591167.50807  -5787732.84107       466.831
       363.766
  25442718.39205  25442722.06105  -4012531.53005  -3029911.03205      2674.324
      2083.896
  21052464.36009  21052466.68109 -18583415.44709 -14314251.07009       172.593
       134.488
 02  5 24  2 34 30.0030000  0  8G04G05G06G09G14G24G25G30
  24842436.68005  24842442.69305   -378629.20105    966116.62605     -1918.494
     -1494.934
  21487063.57809  21487066.74309 -14460552.09309 -11099522.10309     -1705.687
     -1329.106
  23175681.58109  23175684.64009 -12823254.83009  -9820621.04309      2226.025
      1734.566
  23603660.49709  23603664.09609    -32897.68309    137422.24409     -3853.277
     -3002.553
  23313660.07909  23313661.93108 -10012264.70708  -3536556.31308     -1430.011
     -1114.293
  23969272.37007  23969277.32807  -7604912.82807  -5798443.46307       449.839
       350.523
  25427459.80905  25427463.37205  -4092714.29905  -3092391.13005      2671.523
      2081.700
  21051513.19609  21051515.37609 -18588413.98709 -14318146.03509       160.951
       125.417
 02  5 24  2 35  0.0030000  0  8G04G05G06G09G14G24G25G30
  24853443.18506  24853449.70305   -320794.35505   1011182.66405     -1936.829
     -1509.219
  21496832.34709  21496835.72309 -14409216.04209 -11059519.99609     -1716.350
     -1337.415
  23163003.80509  23163007.77909 -12889876.23209  -9872533.79409      2215.770
      1726.571
  23625682.39909  23625686.47908     82828.03708    227598.10408     -3861.403
     -3008.881
  23321879.01109  23321881.57908  -9969072.87708  -3502900.35308     -1449.074
     -1129.146
  23966755.13607  23966759.46107  -7618142.34507  -5808752.17307       432.497
       337.013
  25412218.57705  25412223.33605  -4172807.21705  -3154801.14905      2668.378
      2079.267
  21050629.27609  21050631.71409 -18593058.38009 -14321765.03809       149.018
       116.118
 02  5 24  2 35 30.0030000  0  8G04G05G06G09G14G24G25G30
  24864553.63306  24864557.47805   -262406.07505   1056680.00605     -1955.778
     -1523.980
  21506662.85709  21506665.96309 -14357556.73809 -11019266.00509     -1727.660
     -1346.228
  23150385.60509  23150389.29709 -12956184.97809  -9924202.90409      2204.767
      1718.000
  23647751.24409  23647754.94808    198800.47208    317966.21108     -3870.140
     -3015.694
  23330207.82609  23330210.67408  -9925305.92608  -3468796.25408     -1468.780
     -1144.502
  23964337.28807  23964342.91407  -7630847.14507  -5818651.99507       414.430
       322.935
  25396996.66306  25396998.60905  -4252800.92005  -3217133.95805      2664.476
      2076.222
  21049814.40609  21049816.66809 -18597340.83209 -14325102.01109       136.403
       106.289
 02  5 24  2 36  0.0030000  0  8G04G05G06G09G14G24G25G30
  24875770.34406  24875773.88405   -203465.80905   1102607.43405     -1973.856
     -1538.064
  21516554.89709  21516557.94409 -14305574.40409 -10978760.29809     -1738.089
     -1354.354
  23137827.29009  23137831.13409 -13022179.41309  -9975627.10109      2194.589
      1710.069
  23669866.68809  23669870.39208    315017.97608    408525.28708     -3877.934
     -3021.765
  23338645.51409  23338648.44508  -9880964.69108  -3434244.65608     -1487.560
     -1159.136
  23962020.28807  23962026.04407  -7643025.21607  -5828141.38107       397.182
       309.489
  25381793.53305  25381797.99905  -4332693.59505  -3279387.95405      2661.401
      2073.814
  21049068.35909  21049070.55109 -18601260.91709 -14328156.62209       124.651
        97.130
 02  5 24  2 36 30.0030000  0  8G04G05G06G09G14G24G25G30
  24887089.88706  24887096.34605   -143977.82105   1148961.70905     -1992.029
     -1552.226
  21526507.55809  21526510.86409 -14253272.94309 -10938005.92709     -1748.687
     -1362.612
  23125328.35409  23125332.17509 -13087861.28609 -10026807.74109      2184.184
      1701.962
  23692027.98209  23692030.86508    431475.64208    499271.49708     -3885.900
     -3027.972
  23347191.78809  23347194.33208  -9836053.87508  -3399249.23508     -1506.493
     -1173.886
  23959802.41808  23959806.79107  -7654679.00307  -5837222.23907       379.702
       295.868
  25366609.40205  25366611.97005  -4412486.04205  -3341563.85005      2658.056
      2071.213
  21048390.84209  21048393.15109 -18604821.71909 -14330931.27009       112.713
        87.830
 02  5 24  2 37  0.0030000  0  8G04G05G06G09G14G24G25G30
  24898514.66006  24898518.99705    -83939.46905   1195744.76705     -2010.258
     -1566.437
  21536521.57009  21536524.79409 -14200648.85409 -10897000.15209     -1759.331
     -1370.907
  23112889.83009  23112893.68709 -13153224.92709 -10077740.41409      2173.638
      1693.742
  23714235.10209  23714238.90008    548175.86508    590206.71908     -3893.853
     -3034.170
  23355847.29609  23355849.35908  -9790570.72208  -3363807.84508     -1525.459
     -1188.671
  23957685.79508  23957690.09707  -7665802.63707  -5845889.97107       362.117
       282.169
  25351445.81706  25351448.98205  -4492172.36805  -3403657.07905      2654.609
      2068.526
  21047782.47109  21047784.87409 -18608018.79609 -14333422.50009       100.686
        78.456
 02  5 24  2 37 30.0030000  0  8G04G05G06G09G14G24G25G30
  24910043.46606  24910046.56105    -23359.80205   1242949.71005     -2028.683
     -1580.802
  21546595.45309  21546598.75909 -14147710.61809 -10855749.58809     -1770.199
     -1379.375
  23100511.06909  23100514.33909 -13218276.82409 -10128430.17209      2162.831
      1685.325
  23736486.77709  23736490.55208    665108.98908    681323.40208     -3901.989
     -3040.511
  23364609.61509  23364611.60808  -9744524.15308  -3327927.40908     -1544.616
     -1203.598
  23955668.09207  23955673.54307  -7676402.69907  -5854149.76607       344.228
       268.234
  25336300.77206  25336304.49905  -4571758.86905  -3465672.54905      2650.856
      2065.597
  21047241.78809  21047244.10909 -18610859.67809 -14335636.17309        88.406
        68.888
 02  5 24  2 38  0.0030000  0  8G04G05G06G09G14G24G25G30
  24921676.85606  24921679.84505     37774.12105   1290586.46105     -2046.648
     -1594.791
  21556731.71309  21556734.94809 -14094444.22109 -10814243.31409     -1780.627
     -1387.501
  23088194.31509  23088198.06609 -13283001.07709 -10178864.62609      2152.376
      1677.177
  23758785.27609  23758789.02708    782287.98208    772631.68308     -3909.669
     -3046.496
  23373481.30709  23373483.98008  -9697901.00008  -3291597.68808     -1563.334
     -1218.184
  23953754.15107  23953759.61307  -7686462.84907  -5861988.84307       326.715
       254.581
  25321178.48706  25321180.72605  -4651229.00405  -3527597.31105      2647.428
      2062.931
  21046771.96209  21046774.20109 -18613329.55209 -14337560.75109        76.530
        59.634
 02  5 24  2 38 30.0030000  0  8G04G05G06G09G14G24G25G30
  24933412.84106  24933418.90105     99452.10505   1338647.17005     -2064.803
     -1608.916
  21566928.52109  21566931.55709 -14040859.30309 -10772488.84109     -1791.289
     -1395.810
  23075938.39609  23075942.40509 -13347405.07909 -10229049.50709      2141.626
      1668.798
  23781128.66509  23781131.70108    899702.21308    864123.28008     -3917.525
     -3052.616
  23382461.84209  23382464.10408  -9650711.45008  -3254826.62408     -1582.222
     -1232.898
  23951941.47208  23951945.77407  -7695990.81107  -5869413.21107       308.896
       240.699
  25306075.89606  25306080.92505  -4730589.71905  -3589436.83705      2643.704
      2060.018
  21046370.71409  21046372.91809 -18615437.25009 -14339203.11009        64.389
        50.173
 02  5 24  2 39  0.0030000  0  8G04G05G06G09G14G24G25G30
  24945253.89506  24945258.72505    161673.62505   1387131.42005     -2083.154
     -1623.237
  21577186.10109  21577189.40709 -13986955.16509 -10730485.62809     -1802.150
     -1404.271
  23063744.67809  23063747.97209 -13411486.09809 -10278982.74409      2130.602
      1660.208
  23803516.29709  23803520.40008   1017350.76608    955797.44308     -3925.539
     -3058.859
  23391549.04209  23391550.78808  -9602956.11808  -3217614.70108     -1601.291
     -1247.758
  23950229.33208  23950233.08307  -7704984.19007  -5876421.02707       290.811
       226.602
  25290996.01006  25290999.76105  -4809837.99005  -3651188.75905      2639.697
      2056.908
  21046038.91909  21046041.27509 -18617181.25909 -14340562.07909        52.045
        40.555
 02  5 24  2 39 30.0030000  0  8G04G05G06G09G14G24G25G30
  24957196.88806  24957200.92105    224434.35305   1436035.85305     -2100.941
     -1637.091
  21587503.72009  21587507.06109 -13932735.53509 -10688236.57609     -1812.508
     -1412.343
  23051611.16509  23051614.15409 -13475245.97109 -10328665.73209      2120.022
      1651.964
  23825947.67309  23825951.67008   1135228.91208   1047650.52008     -3933.007
     -3064.681
  23400743.54509  23400745.86608  -9554639.61208  -3179965.48608     -1619.821
     -1262.195
  23948620.05208  23948624.21407  -7713444.64507  -5883013.58307       273.178
       212.865
  25275936.36405  25275939.86905  -4888975.07505  -3712854.00505      2636.100
      2054.105
  21045775.77109  21045777.98709 -18618564.57409 -14341639.98209        40.169
        31.300
 02  5 24  2 40  0.0030000  0  8G04G05G06G09G14G24G25G30
  24969242.37306  24969246.53405    287732.67205   1485359.16105     -2118.958
     -1651.132
  21597881.37009  21597884.44109 -13878200.89509 -10645742.06009     -1823.123
     -1420.615
  23039539.68409  23039543.41209 -13538683.11509 -10378097.24009      2109.112
      1643.460
  23848422.47909  23848425.59708   1253335.18008   1139681.35308     -3940.719
     -3070.689
  23410044.26309  23410046.73608  -9505763.29308  -3141880.06908     -1638.596
     -1276.829
  23947111.50608  23947116.68707  -7721370.52107  -5889189.57907       255.221
       198.871
  25260898.55306  25260901.41305  -4967998.62505  -3774430.79705      2632.159
      2051.049
  21045581.12609  21045583.14309 -18619586.90109 -14342436.60709        28.006
        21.822
 02  5 24  2 40 30.0030000  0  8G04G05G06G09G14G24G25G30
  24981390.21006  24981392.71805    351571.75505   1535103.84105     -2136.783
     -1665.027
  21608319.63509  21608322.77709 -13823347.68409 -10602999.30809     -1833.586
     -1428.768
  23027530.48609  23027534.15509 -13601791.86809 -10427272.85209      2098.296
      1635.034
  23870941.56909  23870944.78108   1371672.18208   1231891.98408     -3948.225
     -3076.539
  23419452.49309  23419454.52108  -9456324.13508  -3103356.06808     -1657.168
     -1291.300
  23945705.90407  23945711.30807  -7728756.69407  -5894945.03107       237.356
       184.953
  25245884.20106  25245886.76805  -5046902.59105  -3835914.42805      2628.280
      2048.023
  21045456.20409  21045458.17309 -18620243.58609 -14342948.30909        15.971
        12.444
 02  5 24  2 41  0.0030000  0  8G04G05G06G09G14G24G25G30
  24993642.23006  24993645.46605    415954.21705   1585271.92705     -2154.916
     -1679.166
  21618819.30309  21618822.60809 -13768171.94909 -10560005.23909     -1844.335
     -1437.144
  23015584.74609  23015588.07509 -13664566.43709 -10476188.07209      2087.115
      1626.322
  23893504.46808  23893508.06608   1490242.56508   1324284.45808     -3955.995
     -3082.594
  23428967.80709  23428970.16308  -9406319.42008  -3064391.36808     -1676.012
     -1305.981
  23944404.36808  23944408.84607  -7735597.37307  -5900275.40307       219.136
       170.754
  25230893.08605  25230898.66606  -5125680.62106  -3897299.87406      2624.040
      2044.699
  21045401.62609  21045403.68909 -18620530.17509 -14343171.62409         3.600
         2.805
 02  5 24  2 41 30.0030000  0  8G04G05G06G09G14G24G25G30
  25005994.64406  25005999.90705    480869.74305   1635855.40905     -2172.635
     -1692.950
  21629378.36209  21629381.65609 -13712683.12309 -10516767.19609     -1854.746
     -1445.257
  23003701.46709  23003705.13609 -13727014.18209 -10524848.61509      2076.220
      1617.832
  23916110.34308  23916114.71608   1609035.92608   1416850.68708     -3963.387
     -3088.350
  23438589.24209  23438591.22308  -9355759.52708  -3024994.05808     -1694.488
     -1320.380
  23943204.79208  23943209.99707  -7741900.16307  -5905186.65407       201.205
       156.782
  25215924.76406  25215928.36305  -5204339.54505  -3958592.49705      2620.049
      2041.601
  21045415.99909  21045418.14409 -18620455.02909 -14343113.06309        -8.442
        -6.579
 02  5 24  2 42  0.0030000  0  8G04G05G06G09G14G24G25G30
  25018450.19406  25018454.06205    546321.18305   1686856.50905     -2190.656
     -1707.006
  21639997.79409  21640001.33409 -13656877.51809 -10473282.32809     -1865.491
     -1453.629
  22991881.29209  22991884.99609 -13789129.32509 -10573249.99809      2064.914
      1609.023
  23938758.98608  23938763.06608   1728054.61608   1509592.49708     -3971.058
     -3094.330
  23448316.93809  23448319.13008  -9304641.22108  -2985161.64208     -1713.261
     -1335.007
  23942108.81208  23942114.45007  -7747659.30707  -5909674.30007       182.868
       142.496
  25200980.28106  25200984.19605  -5282873.24605  -4019787.62005      2615.657
      2038.174
  21045500.04009  21045502.09109 -18620013.67009 -14342769.15109       -20.856
       -16.251
 02  5 24  2 42 30.0030000  0  8G04G05G06G09G14G24G25G30
  25031006.87706  25031011.13205    612304.94005   1738272.36005     -2208.421
     -1720.844
  21650677.31309  21650680.88909 -13600757.58009 -10429552.51309     -1876.009
     -1461.824
  22980124.24309  22980127.92409 -13850912.53609 -10621392.72409      2053.786
      1600.352
  23961449.58508  23961453.39508   1847294.82708   1602506.92208     -3978.445
     -3100.086
  23458149.94109  23458151.95708  -9252968.42808  -2944897.13408     -1731.749
     -1349.411
  23941116.29908  23941121.69107  -7752875.61607  -5913738.93807       164.728
       128.362
  25186059.91106  25186062.33806  -5361281.66906  -4080885.08206      2611.394
      2034.859
  21045653.20709  21045655.30509 -18619207.88209 -14342141.26409       -33.052
       -25.754
 02  5 24  2 43  0.0030000  0  8G04G05G06G09G14G24G25G30
  25043664.29805  25043667.22805    678821.25305   1790103.22705     -2225.902
     -1734.470
  21661416.55009  21661419.66809 -13544322.04409 -10385576.78409     -1886.286
     -1469.833
  22968430.96609  22968434.88209 -13912360.48009 -10669274.20609      2042.818
      1591.805
  23984181.96508  23984185.10708   1966756.78208   1695594.13208     -3985.588
     -3105.651
  23468088.38709  23468090.57908  -9200740.88308  -2904200.36408     -1750.000
     -1363.635
  23940227.43808  23940232.10407  -7757546.18907  -5917378.35007       146.720
       114.323
  25171163.67706  25171167.31106  -5439560.99606  -4141881.95106      2607.287
      2031.649
  21045876.29209  21045878.49609 -18618035.55909 -14341227.76309       -45.023
       -35.083
 02  5 24  2 43 30.0030000  0  8G04G05G06G09G14G24G25G30
  25056422.17805  25056424.76905    745865.90805   1842345.74805     -2243.343
     -1748.065
  21672215.23709  21672218.61309 -13487574.34709 -10341357.81109     -1896.522
     -1477.809
  22956801.34009  22956804.89209 -13973474.48209 -10716895.48009      2031.819
      1583.235
  24006956.46608  24006960.33408   2086436.08808   1788850.72608     -3992.658
     -3111.159
  23478132.08209  23478134.52009  -9147962.84809  -2863074.63909     -1768.171
     -1377.796
  23939441.99708  23939446.59207  -7761672.09307  -5920593.32107       128.700
       100.284
  25156292.36406  25156294.36806  -5517711.99906  -4202778.80806      2603.132
      2028.411
  21046168.66109  21046170.97009 -18616499.32509 -14340030.70309       -57.014
       -44.426
 02  5 24  2 44  0.0030000  0  8G04G05G06G09G14G24G25G30
  25069280.85706  25069284.50305    813437.66505   1894999.03405     -2261.332
     -1762.073
  21683073.37409  21683076.78509 -13430514.74709 -10296895.79509     -1907.337
     -1486.237
  22945235.79209  22945239.17909 -14034252.87709 -10764255.23909      2020.176
      1574.163
  24029772.09508  24029775.99808   2206331.53708   1882275.70708     -4000.259
     -3117.084
  23488279.62309  23488281.45209  -9094635.48409  -2821520.87409     -1786.876
     -1392.372
  23938761.08608  23938766.51307  -7765251.91107  -5923382.78207       110.048
        85.756
  25141445.62706  25141444.95905  -5595732.17405  -4263573.80105      2598.322
      2024.672
  21046530.34609  21046532.56209 -18614598.41409 -14338549.46809       -69.605
       -54.238
 02  5 24  2 44 30.0030000  0  8G04G05G06G09G14G24G25G30
  25082239.59505  25082242.69005    881535.85105   1948062.55205     -2278.547
     -1775.489
  21693990.79009  21693994.27109 -13373142.72409 -10252190.33709     -1917.446
     -1494.113
  22933734.25809  22933737.63409 -14094693.17109 -10811351.55309      2009.176
      1565.592
  24052628.55408  24052631.22708   2326442.36308   1975868.54508     -4007.105
     -3122.420
  23498532.12209  23498534.59608  -9040759.54508  -2779539.65008     -1804.836
     -1406.364
  23938184.39908  23938188.91207  -7768283.60207  -5925745.15607        92.063
        71.737
  25126623.99606  25126626.55205  -5673618.50805  -4324264.41605      2594.099
      2021.373
  21046961.73709  21046964.09309 -18612331.61309 -14336783.13009       -81.512
       -63.517
 02  5 24  2 45  0.0030000  0  8G04G05G06G09G14G24G25G30
  25095295.61505  25095301.40605    950149.84805   2001527.96005     -2295.923
     -1789.011
  21704965.93609  21704969.06509 -13315467.97109 -10207248.98509     -1927.761
     -1502.151
  22922295.68309  22922299.41109 -14154803.11409 -10858190.43909      1997.908
      1556.810
  24075523.63808  24075526.67408   2446757.53608   2069620.60508     -4014.112
     -3127.878
  23508886.60009  23508889.09709  -8986345.87909  -2737139.40109     -1822.974
     -1420.498
  23937710.20308  23937714.56407  -7770775.20407  -5927686.64807        73.822
        57.526
  25111826.64006  25111829.26606  -5751377.72006  -4384855.98006      2589.606
      2017.870
  21047460.97009  21047463.25609 -18609707.75509 -14334738.56809       -93.659
       -72.981
 02  5 24  2 45 30.0030000  0  8G04G05G06G09G14G24G25G30
  25108451.99105  25108456.22305   1019285.71005   2055399.99705     -2313.386
     -1802.632
  21716000.16009  21716003.26709 -13257483.11709 -10162065.99409     -1938.172
     -1510.262
  22910921.54209  22910925.10509 -14214573.24209 -10904764.53709      1986.478
      1547.905
  24098458.97808  24098462.91608   2567283.31908   2163536.76608     -4021.208
     -3133.406
  23519344.87509  23519347.34808  -8931387.96808  -2694315.06908     -1841.166
     -1434.676
  23937340.19308  23937344.78807  -7772717.36607  -5929200.00907        55.397
        43.167
  25097055.89806  25097058.13706  -5829000.32806  -4445341.12106      2584.927
      2014.227
  21048029.79809  21048031.99009 -18606718.59209 -14332409.34609      -105.903
       -82.522
 02  5 24  2 46  0.0030000  0  8G04G05G06G09G14G24G25G30
  25121708.61105  25121712.91305   1088946.53905   2109681.10205     -2330.943
     -1816.301
  21727094.14009  21727097.34009 -13199184.30609 -10116638.36309     -1948.695
     -1518.464
  22899613.51809  22899617.30409 -14273997.87809 -10951069.41909      1974.872
      1538.860
  24121434.96308  24121439.25307   2688022.61407   2257619.30307     -4028.354
     -3138.978
  23529906.76509  23529909.26109  -8875883.16209  -2651064.60009     -1859.425
     -1448.902
  23937076.11008  23937081.25607  -7774104.76807  -5930281.10107        36.825
        28.695
  25082312.26906  25082314.62506  -5906479.56106  -4505714.51106      2580.057
      2010.429
  21048669.02709  21048671.27809 -18603359.67409 -14329792.00609      -118.298
       -92.180
 02  5 24  2 46 30.0030000  0  8G04G05G06G09G14G24G25G30
  25135063.08905  25135067.64905   1159128.31905   2164368.09605     -2347.783
     -1829.457
  21738247.36609  21738250.53109 -13140573.96709 -10070967.97709     -1958.587
     -1526.171
  22888371.19109  22888374.93109 -14333077.64009 -10997105.56609      1963.843
      1530.268
  24144450.52808  24144454.43107   2808971.63907   2351865.28807     -4034.820
     -3144.014
  23540572.58309  23540575.08009  -8819835.09209  -2607390.79709     -1877.014
     -1462.609
  23936917.66508  23936922.20107  -7774938.57207  -5930930.82607        18.831
        14.674
  25067595.16906  25067598.90806  -5983815.37706  -4565976.17906      2575.727
      2007.067
  21049378.36809  21049380.66609 -18599632.53809 -14326887.74209      -130.100
      -101.377
 02  5 24  2 47  0.0030000  0  8G04G05G06G09G14G24G25G30
  25148515.95205  25148521.16905   1229822.00405   2219454.05405     -2365.107
     -1842.937
  21749458.13209  21749461.26209 -13081660.22409 -10025061.17609     -1968.990
     -1534.278
  22877192.98709  22877196.74909 -14391818.99309 -11042878.01509      1952.247
      1521.230
  24167504.55208  24167508.39707   2930120.81407   2446267.20307     -4041.793
     -3149.447
  23551340.19309  23551342.22109  -8763253.24909  -2563301.07909     -1895.083
     -1476.686
  23936862.79808  23936867.08907  -7775225.13607  -5931154.12007          .275
          .212
  25052905.79707  25052907.69606  -6061013.71506  -4626130.71606      2570.814
      2003.231
  21050156.06009  21050158.48709 -18595544.82609 -14323702.51709      -142.428
      -110.983
 02  5 24  2 47 30.0030000  0  8G04G05G06G09G14G24G25G30
  25162067.89605  25162072.56205   1301033.51705   2274943.49405     -2382.139
     -1856.203
  21760728.06309  21760731.20509 -13022435.90909  -9978912.37009     -1979.134
     -1542.182
  22866080.94009  22866084.36309 -14450212.68309 -11088379.56709      1940.823
      1512.328
  24190597.54908  24190601.94507   3051476.53507   2540830.09007     -4048.428
     -3154.619
  23562209.83709  23562212.18209  -8706131.38609  -2518790.55709     -1912.862
     -1490.543
  23936914.61908  23936918.75707  -7774955.32107  -5930943.87807       -18.099
       -14.104
  25038242.81306  25038246.10706  -6138064.12706  -4686169.97806      2566.025
      1999.501
  21051004.22809  21051006.77209 -18591088.21509 -14320229.83109      -154.523
      -120.408
 02  5 24  2 48  0.0030000  0  8G04G05G06G09G14G24G25G30
  25175716.69805  25175720.21505   1372759.84505   2330834.09705     -2399.417
     -1869.670
  21772056.93209  21772060.14309 -12962902.96109  -9932523.07609     -1989.556
     -1550.302
  22855035.08409  22855038.91709 -14508258.72509 -11133610.21509      1929.068
      1503.170
  24213729.75708  24213734.04807   3173035.64207   2635551.42007     -4055.324
     -3159.989
  23573181.91209  23573184.17508  -8648472.66108  -2473861.69608     -1930.877
     -1504.578
  23937071.42108  23937076.40307  -7774129.60807  -5930300.46007       -36.779
       -28.659
  25023609.04207  25023611.71506  -6214966.16406  -4746093.61006      2560.920
      1995.519
  21051922.21709  21051924.39809 -18586263.81209 -14316470.56209      -166.929
      -130.074
 02  5 24  2 48 30.0030000  0  8G04G05G06G09G14G24G25G30
  25189463.90605  25189469.17005   1445003.80305   2387128.05405     -2416.810
     -1883.224
  21783445.14209  21783448.11909 -12903057.43109  -9885890.20609     -2000.128
     -1558.542
  22844056.61909  22844060.44009 -14565951.24309 -11178565.38509      1917.097
      1493.840
  24236901.41807  24236905.47407   3294801.05407   2730433.54307     -4062.336
     -3165.456
  23584256.27409  23584258.54808  -8590274.14208  -2428512.22308     -1949.006
     -1518.703
  23937335.46508  23937341.39607  -7772742.61907  -5929219.68907       -55.675
       -43.384
  25009003.97906  25009006.57006  -6291713.29406  -4805896.56306      2555.580
      1991.365
  21052911.25609  21052913.41309 -18581066.97009 -14312421.07709      -179.519
      -139.884
 02  5 24  2 49  0.0030000  0  8G04G05G06G09G14G24G25G30
  25203309.40206  25203314.15005   1517763.37805   2443823.74305     -2433.924
     -1896.563
  21794892.55009  21794895.98409 -12842900.21609  -9839014.46109     -2010.451
     -1566.585
  22833145.53109  22833148.82509 -14623289.08109 -11223244.18809      1905.316
      1484.662
  24260111.20408  24260115.06107   3416770.31007   2825474.48307     -4069.042
     -3170.680
  23595433.59309  23595435.63308  -8531538.18208  -2382743.97708     -1966.820
     -1532.585
  23937706.50308  23937711.15708  -7770793.85908  -5927701.17008       -74.341
       -57.929
  24994430.00106  24994432.85006  -6368303.94206  -4865577.51106      2550.360
      1987.293
  21053971.06209  21053973.44109 -18575497.79609 -14308081.46009      -191.854
      -149.497
 02  5 24  2 49 30.0030000  0  8G04G05G06G09G14G24G25G30
  25217252.83705  25217258.85005   1591034.63705   2500918.17505     -2451.032
     -1909.895
  21806399.05409  21806402.40609 -12782433.71909  -9791897.73009     -2020.837
     -1574.677
  22822301.77909  22822305.26009 -14680272.88209 -11267647.11609      1893.410
      1475.383
  24283358.98307  24283362.45307   3538939.66407   2920671.37207     -4075.751
     -3175.908
  23606712.38109  23606715.30008  -8472268.73208  -2336560.00008     -1984.664
     -1546.489
  23938183.83508  23938188.38308  -7768284.15408  -5925745.56208       -93.161
       -72.597
  24979884.54106  24979887.56506  -6444737.53606  -4925136.15006      2545.021
      1983.129
  21055101.22609  21055103.44109 -18569558.06409 -14303453.09709      -204.301
      -159.195
 02  5 24  2 50  0.0030000  0  8G04G05G06G09G14G24G25G30
  25231294.23406  25231296.78905   1664819.79005   2558413.01005     -2467.847
     -1923.001
  21817965.11509  21817968.44409 -12721654.48509  -9744537.30509     -2030.970
     -1582.574
  22811526.45309  22811530.07509 -14736897.67609 -11311770.30209      1881.694
      1466.255
  24306645.64607  24306649.71407   3661311.45707   3016025.97007     -4082.212
     -3180.945
  23618092.74709  23618095.08008  -8412463.36908  -2289958.44708     -2002.208
     -1560.160
  23938769.47708  23938774.13007  -7765208.46507  -5923348.92407      -111.751
       -87.078
  24965371.24807  24965373.11206  -6521008.49006  -4984568.03506      2539.823
      1979.081
  21056302.90109  21056305.17509 -18563243.49409 -14298532.65409      -216.543
      -168.734
 02  5 24  2 50 30.0030000  0  8G04G05G06G09G14G24G25G30
  25245432.41906  25245435.63105   1739118.31905   2616307.90705     -2485.390
     -1936.664
  21829590.61509  21829593.53309 -12660562.17609  -9696932.91909     -2041.884
     -1591.078
  22800819.96009  22800823.72209 -14793161.00109 -11355611.81409      1869.135
      1456.468
  24329970.97707  24329974.71607   3783885.36507   3111538.07707     -4089.409
     -3186.549
  23629574.99209  23629577.70008  -8352122.82608  -2242939.87008     -2020.514
     -1574.428
  23939462.50808  23939466.90307  -7761564.82907  -5920509.72807      -131.190
      -102.224
  24950888.62806  24950892.42606  -6597113.14006  -5043870.33406      2533.761
      1974.358
  21057576.04009  21057578.29109 -18556552.83109 -14293319.15309      -229.546
      -178.867
 02  5 24  2 51  0.0030000  0  8G04G05G06G09G14G24G25G30
  25259666.51006  25259669.52205   1813919.01205   2674594.11405     -2501.765
     -1949.425
  21841273.83909  21841276.89809 -12599166.45109  -9649092.10609     -2051.649
     -1598.688
  22790180.61309  22790184.14109 -14849070.79009 -11399177.85009      1857.681
      1447.543
  24353332.27307  24353336.09407   3906650.08707   3207198.86007     -4095.400
     -3191.223
  23641157.42109  23641160.41108  -8291258.43708  -2195513.11208     -2037.599
     -1587.736
  23940262.63608  23940267.91107  -7757361.63607  -5917234.51307      -149.502
      -116.495
  24936436.46007  24936438.31206  -6673058.64306  -5103048.64306      2528.771
      1970.472
  21058919.10109  21058921.43409 -18549495.10309 -14287819.62709      -241.453
      -188.145
 02  5 24  2 51 30.0030000  0  8G04G05G06G09G14G24G25G30
  25273995.28905  25273999.15705   1889218.24105   2733268.79505     -2518.111
     -1962.163
  21853014.39309  21853017.81509 -12537469.47109  -9601016.55209     -2061.410
     -1606.293
  22779608.38809  22779611.89309 -14904627.44009 -11442468.72009      1846.141
      1438.550
  24376729.23307  24376733.28907   4029602.27807   3303005.74107     -4101.355
     -3195.861
  23652838.70509  23652840.04208  -8229873.63508  -2147680.83508     -2054.651
     -1601.035
  23941168.60208  23941173.72407  -7752599.89007  -5913524.06007      -167.875
      -130.809
  24922015.07207  24922018.87006  -6748844.56706  -5162102.57406      2523.665
      1966.490
  21060331.79509  21060333.77609 -18542071.59509 -14282035.08109      -253.383
      -197.442
 02  5 24  2 52  0.0030000  0  8G04G05G06G09G14G24G25G30
  25288418.81605  25288422.64905   1965013.63705   2792330.11905     -2534.899
     -1975.247
  21864812.05409  21864815.54809 -12475472.54609  -9552707.28209     -2071.701
     -1614.310
  22769103.71009  22769107.29709 -14959830.29909 -11485483.89909      1834.042
      1429.122
  24400161.73507  24400166.01407   4152739.43907   3398956.73507     -4107.769
     -3200.858
  23664618.36708          .00001  -8167971.03401          .00011     -2072.164
          .000
  23942181.26508  23942186.04808  -7747279.31908  -5909378.15308      -186.820
      -145.573
  24907624.18007  24907626.53706  -6824469.40106  -5221030.95706      2517.979
      1962.062
  21061813.95109  21061815.88509 -18534282.86209 -14275965.94209      -265.869
      -207.171
 02  5 24  2 52 30.0030000  0  8G04G05G06G09G14G24G25G30
  25302938.13905  25302943.41405   2041308.97205   2851780.90305     -2551.499
     -1988.178
  21876667.59709  21876670.83309 -12413170.71509  -9504160.40209     -2081.803
     -1622.182
  22758667.39409  22758670.77009 -15014672.68609 -11528218.19309      1822.048
      1419.778
  24423629.48607  24423633.92907   4276065.52307   3495054.94207     -4114.010
     -3205.717
  23676497.04608          .00001  -8105546.85301          .00011     -2089.475
          .000
  23943301.24908  23943306.18408  -7741393.31908  -5904791.67108      -205.624
      -160.223
  24893265.66007  24893267.60606  -6899925.59506  -5279828.01006      2512.374
      1957.686
  21063366.77409  21063368.96609 -18526123.00809 -14269607.61809      -278.197
      -216.777
 02  5 24  2 53  0.0030000  0  8G04G05G06G09G14G24G25G30
  25317549.83105  25317552.00005   2118096.89805   2911615.57705     -2567.823
     -2000.904
  21888580.22709  21888583.48609 -12350569.71109  -9455380.41709     -2091.703
     -1629.897
  22748299.10509  22748302.41109 -15069158.52509 -11570674.65809      1810.220
      1410.560
  24447132.66807  24447137.09907   4399573.52307   3591294.92807     -4119.976
     -3210.369
  23688473.71808  23688476.55508  -8042608.59808     21298.89808     -2106.504
     -1641.429
  23944527.93208  23944532.60908  -7734946.61508  -5899768.26408      -224.261
      -174.749
  24878938.28507  24878940.41906  -6975216.09706  -5338495.89206      2506.870
      1953.403
  21064989.05309  21064991.23409 -18517597.24509 -14262964.16709      -290.314
      -226.218
 02  5 24  2 53 30.0030000  0  8G04G05G06G09G14G24G25G30
  25332255.34405  25332258.96605   2195377.21905   2971833.96605     -2584.359
     -2013.774
  21900549.86709  21900552.85609 -12287668.63309  -9406366.60709     -2101.874
     -1637.823
  22737999.26209  22738002.70909 -15123285.07409 -11612851.16109      1798.050
      1401.077
  24470669.73307  24470673.55507   4523263.01207   3687676.30507     -4126.148
     -3215.180
  23700548.55309  23700551.15508  -7979156.63808     70741.96008     -2123.781
     -1654.891
  23945861.75908  23945866.71707  -7727937.34107  -5894306.51207      -243.214
      -189.520
  24864642.88407  24864645.45106  -7050337.35706  -5397031.93906      2501.039
      1948.861
  21066681.48409  21066683.64109 -18508703.69909 -14256034.13809      -302.738
      -235.901
 02  5 24  2 54  0.0030000  0  8G04G05G06G09G14G24G25G30
  25347054.78205  25347056.70505   2273147.00405   3032433.72505     -2600.532
     -2026.380
  21912576.42909  21912579.50009 -12224468.69909  -9357119.91509     -2111.674
     -1645.459
  22727767.76509  22727771.25809 -15177051.72209 -11654747.20809      1786.172
      1391.820
  24494241.31307  24494245.00507   4647131.76307   3784197.37907     -4131.963
     -3219.709
  23712720.47109  23712722.99108  -7915193.58908    120583.26008     -2140.638
     -1668.028
  23947303.05308  23947307.58907  -7720364.59307  -5888405.66507      -261.864
      -204.048
  24850380.31207  24850383.21906  -7125288.08106  -5455435.06706      2495.442
      1944.493
  21068443.62909  21068445.89109 -18499443.01209 -14248818.02509      -314.852
      -245.338
 02  5 24  2 54 30.0030000  0  8G04G05G06G09G14G24G25G30
  25361946.99405  25361951.89405   2351406.15405   3093414.86505     -2616.711
     -2038.989
  21924659.96809  21924663.53109 -12160969.03109  -9307639.66909     -2121.605
     -1653.198
  22717605.27209  22717608.68309 -15230455.63109 -11696360.60909      1774.110
      1382.422
  24517846.96107  24517850.60607   4771179.37007   3880857.82407     -4137.843
     -3224.292
  23724989.05808  23724991.63708  -7850719.76308    170822.58108     -2157.584
     -1681.234
  23948851.63708  23948856.25607  -7712226.37007  -5882064.21007      -280.659
      -218.696
  24836150.30307  24836153.37406  -7200064.27306  -5513702.21406      2489.648
      1939.980
  21070276.13809  21070278.36509 -18489813.34509 -14241314.39209      -327.098
      -254.882
